Name,latitude,longitude,Address,IndustryType
aneja associates,18.9986552,72.8260748,"301, Peninsula Towers, Ganapatrao Kadam Marg, Lower Parel West, Lower Parel, Mumbai, Maharashtra 400013, India",accounting
sudit k. parekh & co.,18.9978494,72.8288859,"2002, Urmi Estate, 20th Floor, 95, Ganpatrao Kadam Marg, Nagin Nagar Chawl, Dhuru Wadi, Lower Parel, Mumbai, Maharashtra 400013, India",accounting
khimji kunverji & co.,19.0112551,72.8374026,"Level-19, Sunshine Tower,, Senapati Bapat Marg,, Elphinstone Road,, Babasaheb Ambedkar Nagar, Mumbai, Maharashtra 400013, India",accounting
n.a.shah associates,19.0060778,72.8240359,"B 41-45 (4th floor) and 21, 25 (2nd floor, Paragon Centre, Pandurang Budhkar Marg, Lower Parel, Mumbai, Maharashtra 400013, India",accounting
g.m.kapadia & co,18.9310031,72.8330813,"Tamarind House, 36B Tamarind Lane, Fort, Kala Ghoda, Fort, Mumbai, Maharashtra 400001, India",accounting
vitae international accounting services pvt.ltd.,19.0759837,72.8776559,"Mumbai, Maharashtra, India",accounting
radisson consulting llp,19.2185985,72.8641349,"A-005, Kanakia Western Edge II, Western Edge II, Off, Western Express Hwy, Food Corporation of India Warehouse, Borivali East, Mumbai, Maharashtra 400066, India",accounting
mgb advisors private limited,19.0759837,72.8776559,"Mumbai, Maharashtra, India",accounting
rakchamps | chartered accountants,19.21114,72.8298209,"GF-9, H-Wing, Building No. 2, Rock Enclave, Next to SBI, Hindustan Naka, Kandivali west, Kandivali, Sahyadri Nagar, Kandivali West, Mumbai, Maharashtra 400067, India",accounting
desai saksena & associates,18.934291,72.834207,"First Floor, Laxmi Building, Sir Phirozshah Mehta Rd, Borabazar Precinct, Ballard Estate, Fort, Mumbai, Maharashtra 400001, India",accounting
"p c ghadiali and co llp, chartered accountants",18.9730605,72.8136934,"Arun Chamber, XRF7+6FG, Tardeo Main Road, Janata Nagar, Tardeo, Mumbai, Maharashtra 400034, India",accounting
taxpert professionals,19.0799167,72.8957967,"725-726, 7th Floor, D- Wing, Neelkanth Business Park, near Bus Depot, Sadguru Nagar, Neelkanth Kingdom, Vidyavihar West, Vidyavihar, Mumbai, Maharashtra 400086, India",accounting
themis consult,19.0151109,72.8512053,"42A, G D Ambekar Rd, Central Railway Colony, Kohinoor Mill, Wadala, Mumbai, Maharashtra 400031, India",accounting
somaiya & co.,19.073679,72.8991746,"Vidyanagar, Vidya Vihar East, Vidyavihar, Mumbai, Maharashtra 400077, India",accounting
janaswamy associates,19.044434,72.864887,"B-603 , Sion, Maryland Corner, 39, T.V. Chidambaram marg, Air Force Quarters, Sion East, Sion, Mumbai, Maharashtra 400022, India",accounting
agarwal sanganeria & co. (chartered accountants),18.9276724,72.8330985,"219, Old Bake House, Maharashtra Chamber, Of Commerce Lane, Lion Gate, Fort, Mumbai, Maharashtra 400023, India",accounting
ratna international,18.9351674,72.8340839,"35 ate a Terrace 1st Floor, Crossing Road, Borabazar Precinct, Azad Maidan, Fort, Mumbai, Maharashtra 400001, India",accounting
apurva group,19.1111771,72.9088501,"7/F, B Wing, Supreme Business Park, South Avenue Street, Hiranandani Gardens, Powai, Hiranandani Gardens, Powai, Mumbai, Maharashtra 400076, India",accounting
mahavir industries,18.9933579,72.827167,"Mahavir Industries Building, Sun Mill Compound, next to Parvati Industrial Estate, Lower Parel West, Lower Parel, Mumbai, Maharashtra 400013, India",accounting
chempro expertise private limited,19.1032148,72.8879978,"203, Trade Corner Near Sakinaka, Metro, Bandi Bazaar, Nair Wadi, Andheri East, Mumbai, Maharashtra 400072, India",accounting
sharp engineering,19.111449,72.850487,"2, Ramprasad Yadav Compound, Lane Number 1, near Jain Dairy, Koldongri, Andheri East, Mumbai, Maharashtra 400069, India",accounting
cerebrus consulting,19.0926361,72.9128309,"222, Lal Bahadur Shastri Rd, Nityanand Nagar, Ghatkopar West, Mumbai, Maharashtra 400086, India",accounting
jet airways,19.0759837,72.8776559,"Mumbai, Maharashtra, India",airlines/aviation
air india sats,19.0759837,72.8776559,"Mumbai, Maharashtra, India",airlines/aviation
riya travel and tours india pvt ltd,19.0759837,72.8776559,"Mumbai, Maharashtra, India",airlines/aviation
goair,19.0931403,72.8567534,"Chhatrapati Shivaji Maharaj International Airport, T1, Navpada, Vile Parle East, Vile Parle, Mumbai, Maharashtra 400099, India",airlines/aviation
cambata aviation pvt ltd,19.095225,72.8324386,"No 3A, Hangar, Juhu Aerodrome, Vile Parle West, Airport Area, Juhu, Mumbai, Maharashtra 400054, India",airlines/aviation
sheorey digital systems ltd. (sds),18.9440634,72.8240965,"Tarabai Hall, 1st floor, 97, Marine Drive Shiv Prasad, Marine Lines, Churchgate, Mumbai, Maharashtra 400002, India",airlines/aviation
celebi nas airport services india pvt. ltd.,19.1076102,72.8798779,"WING-B, Sir Mathuradas Vasanji Rd, Chimatpada, Marol, Andheri East, Mumbai, Maharashtra 400059, India",airlines/aviation
mumbai international airport pvt. ltd.,19.0759837,72.8776559,"Mumbai, Maharashtra, India",airlines/aviation
gvk mial,19.0925301,72.8562749,"Chhatrapati Shivaji International Airport Area, 3VV4+2G6, Navpada, Vile Parle East, Vile Parle, Mumbai, Maharashtra 400099, India",airlines/aviation
indamer aviation pvt. ltd.,19.0953418,72.837144,"3RWP+4VJ, Airport Area, Juhu, Mumbai, Maharashtra 400049, India",airlines/aviation
millennium aero dynamics private limited,18.9643445,72.8056855,"36A/37 , White Hall , 143, August Kranti Marg Kemps Corner, Kemps Corner, Malabar Hill, Mumbai, Maharashtra 400006, India",airlines/aviation
comfort travel group,19.0759837,72.8776559,"Mumbai, Maharashtra, India",airlines/aviation
rodeo drive,19.1097338,72.8759478,"Peninsula redpine, HOTEL, Bori Colony, Marol, Andheri East, Mumbai, Maharashtra 400059, India",airlines/aviation
kris aero services pvt ltd,19.0759837,72.8776559,"Mumbai, Maharashtra, India",airlines/aviation
invision air services pvt. ltd.,18.9242079,72.8226065,"602, 5, Jamnalal Bajaj Marg, Nariman Point, Mumbai, Maharashtra 400021, India",airlines/aviation
cav aero services llp,19.1118641,72.8790282,"402, Wellington Business Park 2, Gamdevi, Marol, Andheri East, Mumbai, Maharashtra 400059, India",airlines/aviation
allied aviation pvt. ltd,19.1117312,72.8652334,"167, Guru Hargovindji Rd, Shaheed Bhagat Singh Society, S B Singh Colony, Chakala, Andheri East, Mumbai, Maharashtra 400093, India",airlines/aviation
sydler group of companies,19.0946925,72.8487929,"Mittal Tower, C Wing, 115, 11th Floor, Nariman Point, Navpada, Vile Parle East, Vile Parle, Mumbai, Maharashtra 400021, India",alternative medicine
maximaa systems ltd.,19.0759837,72.8776559,"Mumbai, Maharashtra, India",alternative medicine
millennium herbal care limited,18.9273226,72.8220116,"12 B Nirmal, 241, 242, Backbay Reclamation, Nariman Point, Mumbai, Maharashtra 400021, India",alternative medicine
total herb solutions private limited,19.0759837,72.8776559,"Mumbai, Maharashtra, India",alternative medicine
maac,19.0759837,72.8776559,"Mumbai, Maharashtra, India",animation
maya digital studios (p) ltd.,19.168619,72.853304,"6th Floor, Chintamani Classique, Off, Aarey Rd, next to Vishveshwar Nagar, Churi Wadi, Goregaon, Mumbai, Maharashtra 400063, India",animation
88 pictures,19.1226261,72.8706223,"Plot No.C-8, opp. Rolta Technology Park, near Seepz, M.I.D.C, Subhash Nagar, Andheri East, Mumbai, Maharashtra 400093, India",animation
assemblage entertainment,19.1177736,72.8887567,"4th Floor, ICC Chambers, 2, Saki Vihar Rd, Muranjan Wadi, Marol, Powai, Mumbai, Maharashtra 400072, India",animation
digitales studios,19.0759837,72.8776559,"Mumbai, Maharashtra, India",animation
graphiti multimedia pvt ltd,19.18977,72.8401471,"5th Floor, Neo Corporate Plaza, Malad, Navy Colony, Kanchpada, Malad West, Mumbai, Maharashtra 400064, India",animation
golden robot animation pvt. ltd.,19.174342,72.8446203,"306, DLH Park, Dlh Park, Swami Vivekananda Rd, Malad, Sunder Nagar, Goregaon West, Mumbai, Maharashtra 400064, India",animation
zee institute of creative arts -zica,19.1367958,72.8347004,"Satyadev Plaza, 102 First Floor, Veera Desai Rd, Veera Desai Industrial Estate, Andheri West, Mumbai, Maharashtra 400053, India",animation
circle creation,19.1377913,72.832835,"1004,10th Floor Morya Bluemoon, New Link Rd, near tanishq showroom, Veera Desai Industrial Estate, Andheri West, Mumbai, Maharashtra 400053, India",animation
maac junior toon club,19.0638441,72.8370263,"Gharaonda, Gr. floor Plot # 558, 32nd Road, National College Lane, Bandra West, Mumbai, Maharashtra 400050, India",animation
bombay rayon fashions limited,19.0759837,72.8776559,"Mumbai, Maharashtra, India",apparel & fashion
future lifestyle fashions limited,18.9307062,72.8340314,"37, Mumbai Samachar Marg, Kala Ghoda, Fort, Mumbai, Maharashtra 400001, India",apparel & fashion
etisalat db telecom pvt. ltd.,19.0759837,72.8776559,"Mumbai, Maharashtra, India",apparel & fashion
texport syndicate india ltd,19.1086887,72.8789185,"CTS-796-A, Fleet House, Sir Mathuradas Vasanji Rd, opp. Marol Fire Station Building, Gamdevi, Marol, Andheri East, Mumbai, Maharashtra 400059, India",apparel & fashion
texport industries pvt. ltd.,19.1148273,72.8500291,"506, Hubtown Solaris, Professor NS Phadke Rd, Vijay Nagar, Andheri East, Mumbai, Maharashtra 400069, India",apparel & fashion
spykar lifestyles pvt ltd,19.1700995,72.8570404,"Near Virwani Industrial Estate ,, 1st /2nd Floor, 271, Business Park Ind. Bldg,Goregoan East, Vishveshwar Nagar, Goregaon West, Mumbai, Maharashtra 400063, India",apparel & fashion
zodiac clothing company ltd,19.0759837,72.8776559,"Mumbai, Maharashtra, India",apparel & fashion
bewakoof.com,19.0759837,72.8776559,"Mumbai, Maharashtra, India",apparel & fashion
tresor,19.2104075,72.8752039,"1, Evershine Rd, Evershine Phase 3, Evershine Millennium Paradise, Thakur Village, Kandivali East, Mumbai, Maharashtra 400101, India",apparel & fashion
flyrobe,19.0759837,72.8776559,"Mumbai, Maharashtra, India",apparel & fashion
catwalk worldwide pvt. ltd.,19.1788627,72.836637,"No 13/L, New Link Rd, Malad, Reserve Bank of India Staff Quarters, Mindspace, Malad West, Mumbai, Maharashtra 400064, India",apparel & fashion
mirraw.com,19.0759837,72.8776559,"Mumbai, Maharashtra, India",apparel & fashion
the souled store pvt. ltd.,18.9882605,72.8275692,"224, Tantia Jogani Industrial Premises Opp Lodha Excelus, Jivraj Ramji Boricha Marg, Lower Parel East, Shastri Nagar, Adarsh Nagar, Worli, Mumbai, Maharashtra 400011, India",apparel & fashion
melange,18.9644923,72.8085634,"33, Altamount Rd, Kemps Corner, Tardeo, Mumbai, Maharashtra 400026, India",apparel & fashion
krishna beads industries (kbi),18.9942425,72.8280073,"A1, 1st Floor , Unit 150, Shah & Nahar Industrial Estate, Sitaram Jadhav Marg, Lower Parel, Mumbai, Maharashtra 400013, India",apparel & fashion
stylecracker,19.0151206,72.8512995,"42A Impression House, G D Ambekar Marg,, Wadala Village, Wadala(west), Sahakar Nagar, Wadala, Mumbai, Maharashtra 400031, India",apparel & fashion
pepe jeans india ltd,19.1080069,72.8837132,"3rd Floor ,C-Tower, Times Square Building, Andheri - Kurla Rd, Gamdevi, Marol, Andheri East, Mumbai, Maharashtra 400059, India",apparel & fashion
eternity lifestyles pvt. ltd,19.042027,72.867101,"129, Champaklal Udyog Bhavan, 105, Sion East, Air Force Quarters, Sion East, Sion, Mumbai, Maharashtra 400022, India",apparel & fashion
manish malhotra,19.0738661,72.8338069,"Shivraj Heights, Corner of 14th Road & Linking Road, Khar West, Santacruz West, Mumbai, Maharashtra 400052, India",apparel & fashion
sapl industries private limited,18.9948925,72.8255124,"5th Floor, The Phoenix House, Phoenix Mills Compound, Lower Parel, Mumbai, Maharashtra 400013, India",apparel & fashion
bombay shirt company,19.0759837,72.8776559,"Mumbai, Maharashtra, India",apparel & fashion
purple style labs,19.086778,72.8269687,"1st Floor, 30B, High Tide, Juhu Tara Rd, Chandrabai Nagar, Juhu, Mumbai, Maharashtra 400049, India",apparel & fashion
marsil exports,18.972502,72.8141,"2/02, 2nd Floor, Tardeo A C Market, Tardeo Road, Tardeo Road, Janata Nagar, Tardeo, Mumbai, Maharashtra 400034, India",apparel & fashion
emmar international,18.9255728,72.8242221,"613, Raheja Centtre, 214, Nariman Point, Nariman Point, Mumbai, Maharashtra 400021, India",apparel & fashion
alex jewellery pvt. ltd.,19.204741,72.8261955,"74/A, Charkop Rd, Kandivali, Charkop, Charkop Industrial Estate, Kandivali West, Mumbai, Maharashtra 400067, India",apparel & fashion
coutloot,19.1717457,72.8329367,"Prism Tower, behind HyperCITY, Malad, Goregaon West, Mumbai, Maharashtra 400064, India",apparel & fashion
federal brands limited,19.0759837,72.8776559,"Mumbai, Maharashtra, India",apparel & fashion
textilepeople,19.1627629,72.8328758,"C/803, Orion Off, Vasant Galaxy, New Link Rd, Jai Taramani CHS, Laxmi Nagar, Goregaon West, Mumbai, Maharashtra 400104, India",apparel & fashion
art group,19.187177,72.840777,"Unit No. 1, Satguru Krupa, Building, Haji Zakeria Rd, Malad, Navy Colony, Liberty Garden, Malad West, Mumbai, Maharashtra 400064, India",apparel & fashion
wow retail pvt.ltd,19.181663,72.835893,"924, Ijmima Complex, Link Road, Malad West, behind Goregaon Sports Club, Malad, Mindspace, Malad West, Mumbai, Maharashtra 400064, India",apparel & fashion
karwa marketing,19.0759837,72.8776559,"Mumbai, Maharashtra, India",apparel & fashion
bombay electric,18.9211403,72.8325667,"1, BEST Marg, Apollo Bandar, Colaba, Mumbai, Maharashtra 400001, India",apparel & fashion
flemingo dutyfree shop private limited,19.0759837,72.8776559,"Mumbai, Maharashtra, India",apparel & fashion
kotak overseas private limited,19.0461723,72.9098134,"10, Mahinder Chambers,, Waman Tukaram Patil Marg, opp. Dukes Factory, MBPT Colony, Best Colony, Chembur, Mumbai, Maharashtra 400071, India",apparel & fashion
tip top fashions private limited,19.1843654,72.8465415,"307, 3rd Floor, Station Center, Swami Vivekananda Rd, Malad, Navy Colony, Mamledarwadi, Malad West, Mumbai, Maharashtra 400064, India",apparel & fashion
anika apparels pvt ltd,18.994625,72.8272405,"180/A, 400013, Lower Parel, Mumbai, Maharashtra 400013, India",apparel & fashion
texorange corporation limited,19.104923,72.882432,"160/6, Mittal Industrial Estate, Andheri Kurla Road,, Marol Naka, Andheri (E), Mittal Industrial Estate, Marol, Saki Naka, Mumbai, Maharashtra 400059, India",apparel & fashion
blue blends india ltd (blb),18.951727,72.8310885,"2nd Floor, J. B. F House, Kalbadevi, Mumbai - 400002, Chippi Chawl, Kalbadevi, Mumbai, Maharashtra 400002, India",apparel & fashion
avon lifestyle products pvt. ltd.,19.12034,72.861158,"B1, Nandkishore Industrial Estate, Off Mahakali Caves Rd, near Paper Box Industrial Estate, Gundavali, Andheri East, Mumbai, Maharashtra 400093, India",apparel & fashion
s. kumars nationwide limited,19.0759837,72.8776559,"Mumbai, Maharashtra, India",apparel & fashion
edifice architects pvt. ltd.,19.0470031,72.9106048,"First Floor Plot #2A Ujagar Infotech Park Opposite Deonar Bus Depot Sunder Baug, MBPT Colony, Best Colony, Govandi East, Mumbai, Maharashtra 400088, India",architecture & planning
vector projects (i) pvt. ltd,19.0759837,72.8776559,"Mumbai, Maharashtra, India",architecture & planning
udc,18.9223746,72.8319078,"301, Ram Nimi Building, Mandlik Rd, Apollo Bandar, Colaba, Mumbai, Maharashtra 400001, India",architecture & planning
anj group,19.199949,72.82761,"106/107, Rajiv Gandhi Commercial Complex, Kandivali, Chatrapati Shivaji Raje Complex, Kandivali West, Mumbai, Maharashtra 400067, India",architecture & planning
architect hafeez contractor,18.9303354,72.8349009,"29 Bankstreet, 1st Floor, Sonawala Building, Horniman Circle, G Vaidya Rd, Kala Ghoda, Fort, Mumbai, Maharashtra 400023, India",architecture & planning
dsp design associates pvt. ltd.,18.989203,72.813428,"6th Floor, Dev Chand House Dr, Worli Hill Rd, Shiv Sagar Estate, Worli, Mumbai, Maharashtra 400018, India",architecture & planning
hunter douglas india pvt ltd,19.1120727,72.8605538,"661-662, 6th Floor, Building No 6, Solitaire Corporate Park Andheri Ghatkopar Link Road, Chakala, Andheri East, Mumbai, Maharashtra 400093, India",architecture & planning
ratan j batliboi architects,18.999497,72.8234685,"Industrial Estate, 346 A to Z, Ganpatrao Kadam Marg, near Peninsula Park, Lower Parel West, Lower Parel, Mumbai, Maharashtra 400013, India",architecture & planning
broadband pacenet (india) pvt. ltd.,19.1175443,72.867693,"B8, Marol Industrial Area, Next to MMIDC Police Station, Andheri East, Mulgaon, Andheri East, Mumbai, Maharashtra 400093, India",architecture & planning
npapl,19.0620473,72.834736,"204, Silver Pearl Building, Waterfield Road, Bandra West, Mumbai, Maharashtra 400050, India",architecture & planning
p g patki architects,18.9318794,72.8329706,"1st Floor, Calcot House, 8, Tamarind Lane, Fort, Kala Ghoda, Fort, Mumbai, Maharashtra 400001, India",architecture & planning
worksphere architects india pvt.ltd.,19.1599147,72.9465198,"Mulund - Goregaon Link Rd, Nahur, Industrial Area, Bhandup West, Mumbai, Maharashtra 400078, India",architecture & planning
m/s arnita sez consultants pvt. ltd.,19.1175646,72.883584,"E-1105/06, Lok Sarita, Military Rd, Sankara Nagar, Bhavani Nagar, Marol, Andheri (E, Mumbai, Maharashtra 400059, India",architecture & planning
transitions architects pvt ltd,19.134625,72.8369171,"504,D Wing, Remi Bizcourt, Veera Desai Rd, Industrial Area, Andheri West, Mumbai, Maharashtra 400053, India",architecture & planning
team one architects (india) pvt. ltd.,19.0628277,72.8639084,"Plot No 25, Laxmi Tower, B Wing, Unit No 3B, Second St., G Block, G Block BKC, Bandra Kurla Complex, Bandra East, Mumbai, Maharashtra 400051, India",architecture & planning
zz architects,19.0033503,72.827227,"8th Floor, Trade Link, 'E' Wing, 'B' Block Kamala Mill Compound, Senapati Bapat Marg, Lower Parel, W, Maharashtra 400013, India",architecture & planning
synectics forum,19.0759837,72.8776559,"Mumbai, Maharashtra, India",architecture & planning
kns architects pvt ltd,19.174639,72.837531,"16, Muncipal Shopping Center, Mitha Nagar, Link Road, Goregaon West, Goregaon West, Malad, Sunder Nagar, Malad West, Mumbai, Maharashtra 400174, India",architecture & planning
kapadia associates design llp,18.995782,72.838532,"112, peninsula Centre, Dr SS Rao road, parel East, Parel East, Parel, Mumbai, Maharashtra 400012, India",architecture & planning
mno,19.1392287,72.8114927,"MNO, Cluster_mumbai Suburban_705, Amit Nagar, Versova, Andheri West, Mumbai, Maharashtra 400061, India",architecture & planning
nestopia,18.9614047,72.8293927,"61, Chimna Butcher St, Ajmer, Kumbharwada, Mumbai, Maharashtra 400003, India",architecture & planning
jtcpl designs,19.010393,72.829892,"3rd floor Sadguru Darshan, 1050, New Prabhadevi Rd, Prabhadevi, Mumbai, Maharashtra 400025, India",architecture & planning
unit 7 group,18.9381752,72.8355754,"Waziri Manzil 16 Manohardas Road, Modi St, Borabazar Precinct, Ballard Estate, Fort, Mumbai, Maharashtra 400001, India",architecture & planning
brindavan group,19.0511466,72.8676486,"Vrindavan, Chunabhatti, Sion, Mumbai, Maharashtra 400022, India",architecture & planning
"vpcpl - vijay punjabi consultants pvt. ltd.,",18.9249028,72.8217243,"Ajanta Apartments, Jamnalal Bajaj Marg, Mahatma Phule Nagar, Nariman Point, Mumbai, Maharashtra 400021, India",architecture & planning
ga design,18.9942866,72.8271888,"Adhyaru Industrial Estate, Sun Mill Compound, 208, Lower Parel West, Lower Parel, Mumbai, Maharashtra 400013, India",architecture & planning
practice design pvt ltd,19.050241,72.9180421,"204, Sai Samarth Business Park, Deonar Village Rd, Deonar, Govandi East, Mumbai, Maharashtra 400088, India",architecture & planning
somaya and kalappa consultants (snk),18.935455,72.841415,"Ground Floor, Udyog Bhavan, 29, Walchand Hirachand Marg, Ballard Estate, Fort, Mumbai, Maharashtra 400001, India",architecture & planning
the ashleys,19.0933328,72.914404,"315, Goldcrest Business Park, Lal Bahadur Shastri Rd, opp. Vijay Sales, Nityanand Nagar, Ghatkopar West, Mumbai, Maharashtra 400086, India",architecture & planning
talati and panthaky associated - india,19.0759837,72.8776559,"Mumbai, Maharashtra, India",architecture & planning
collage design pvt. ltd.,19.1104174,72.9299611,"300, Sai Sampann, Station Rd, Kala Ghoda, Vikhroli, Mumbai, Maharashtra 400083, India",architecture & planning
green space alliance,19.1122719,72.8827768,"702, Makwana Rd, Gamdevi, Marol, Andheri East, Mumbai, Maharashtra 400059, India",architecture & planning
m m projects consultants private limited,19.0759837,72.8776559,"Mumbai, Maharashtra, India",architecture & planning
b.n. shah & associates,19.012817,72.8483668,"316, Wadala Udyog Bhavan, Naigaon Cross Rd, Wadala East, Naigaon, Dadar, Mumbai, Maharashtra 400031, India",architecture & planning
abm architects mumbai,19.0243658,72.835413,"665, SVS Rd, next to Hotel Amigo, Dadar West, Prabhadevi, Mumbai, Maharashtra 400028, India",architecture & planning
saral vaastu,19.0759837,72.8776559,"Mumbai, Maharashtra, India",architecture & planning
beautex industries pvt ltd,18.9931437,72.8268781,"Office#6, Ground Floor, Parvati Industrial Premises, Sun Mill Compound, Lower Parel, Mumbai, Maharashtra 400013, India",architecture & planning
studio mumbai architects,18.981631,72.832219,"561, 563, NM Joshi Marg, Byculla West, Jacob Circle, Mumbai, Maharashtra 400011, India",architecture & planning
trescent lifestyles pvt ltd,19.0082821,72.8208377,"324, T.V Industrial Estate, behind Glaxo Labs, Worli, Mumbai, Maharashtra 400030, India",architecture & planning
crysta l mirage pvt. ltd.,19.204964,72.8256816,"73/D, Government Industrial Estate, Charkop, Kandivali West, Ganesh Nagar, Bhandup West, Kandivali, Charkop, Charkop Industrial Estate, Kandivali West, Mumbai, Maharashtra 400067, India",arts and crafts
store indya private limited,19.0759837,72.8776559,"Mumbai, Maharashtra, India",arts and crafts
baroque,19.0759837,72.8776559,"Mumbai, Maharashtra, India",arts and crafts
kyoorius communications pvt ltd,18.9930393,72.8262966,"Second Floor, Kohinoor Estate, 165, Sun Mills Compound Rd, Lower Parel, Mumbai, Maharashtra 400013, India",arts and crafts
baaya design,18.9924072,72.8242628,"A-Wing, Ground Floor, Prathamesh Tower, Raghuvanshi Mills, Senapati Bapat, Road, Gandhi Nagar, Lower Parel West, Worli, Mumbai, Maharashtra 400013, India",arts and crafts
volkswagen india,19.0759837,72.8776559,"Mumbai, Maharashtra, India",automotive
asia motor works,19.0555995,72.8994237,"25, Shantabai Ambre Marg, Chembur, Mumbai, Maharashtra 400071, India",automotive
"mahindra and mahindra limited [automotive, farm equipment and agri business]",19.0759837,72.8776559,"Mumbai, Maharashtra, India",automotive
nrb bearings ltd.,18.9341437,72.8348489,"Dhannur, 15, Sir Phirozshah Mehta Rd, Borabazar Precinct, Ballard Estate, Fort, Mumbai, Maharashtra 400001, India",automotive
carwale,19.0759837,72.8776559,"Mumbai, Maharashtra, India",automotive
mahindra two wheelers ltd,19.1459426,72.9366873,"shop 19, Sai Ashish Building, Bhandup Village Rd, opp. GS shetty school, Bhandup West, Mumbai, Maharashtra 400078, India",automotive
bkt tires,19.0759837,72.8776559,"Mumbai, Maharashtra, India",automotive
automotive manufacturers private limited,19.0717526,72.8841548,"No. 108, Bazar Ward Rd, Vinobha Bhave Nagar, Kurla West, Kurla, Mumbai, Maharashtra 400070, India",automotive
mahindra first choice services ltd.,19.0759837,72.8776559,"Mumbai, Maharashtra, India",automotive
cartrade.com,19.0130137,72.8265884,"Lloyds Centre Point 1st Floor, Above Tata Motors Showroom Unit No. 11 & 12, 1096A, Appasaheb Marathe Marg, Century Bazaar, Prabhadevi, Mumbai, Maharashtra 400025, India",automotive
sedemac mechatronics,19.0759837,72.8776559,"Mumbai, Maharashtra, India",automotive
mahindra first choice wheels ltd,19.0759837,72.8776559,"Mumbai, Maharashtra, India",automotive
asian ppg industries limited,19.0759837,72.8776559,"Mumbai, Maharashtra, India",automotive
audi india,19.0759837,72.8776559,"Mumbai, Maharashtra, India",automotive
setco,18.9748314,72.8128685,"54/A, Tardeo Rd, near Film Center Building, Malviya Nagar, Tardeo, Mumbai, Maharashtra 400034, India",automotive
abc bearings ltd,18.9911464,72.8135725,"402 - B, Poonam Chambers, Dr. A. B. Road, Worli, Markandeshwar Nagar, Shiv Sagar Estate, Worli, Mumbai, Maharashtra 400018, India",automotive
credr,19.0759837,72.8776559,"Mumbai, Maharashtra, India",automotive
classic stripes pvt. ltd.,19.11024,72.8809522,"Astarc, House, 76, 79, Makwana Rd, Gamdevi, Marol, Andheri East, Andheri, Maharashtra 400059, India",automotive
supreme group company,19.0592912,72.9012796,"Plot 110, 16th Rd, arg, Chembur, Mumbai, Maharashtra 400071, India",automotive
mahindra sona limited,18.9252366,72.8236649,"31, 3rd Floor, Maker Chambers VI, Nariman Point, Nariman Point, Mumbai, Maharashtra 400021, India",automotive
infinity cars pvt ltd,19.0615172,72.836588,"No 253, 30th Rd, Bandra West, Mumbai, Maharashtra 400050, India",automotive
iit bombay racing,19.0759837,72.8776559,"Mumbai, Maharashtra, India",automotive
shivam autozone (india) pvt. ltd,19.0759837,72.8776559,"Mumbai, Maharashtra, India",automotive
delux bearings pvt. ltd.,19.000597,72.829404,"Shop No.31/A, 32, Mathuradas Mill Compound, Ideal Industrial Estate, Lower Parel Bridge, NM Joshi Marg, Senapati Bapat Marg, Lower Parel, Mumbai, Maharashtra 400013, India",automotive
spectra motors ltd,19.0759837,72.8776559,"Mumbai, Maharashtra, India",automotive
orion racing india,19.07301,72.899591,"3VFX+6R4, Ghatkopar - Mahul Rd, Vidyanagar, Vidya Vihar East, Vidyavihar, Mumbai, Maharashtra 400077, India",automotive
remsons industries ltd,19.103525,72.8485883,"401, Gladdiola, above Kotak Mahindra Bank, Near Tilak School, E, Hanuman Rd, Vishnu Prasad Society, Navpada, Vile Parle East, Vile Parle, Mumbai, Maharashtra 400057, India",automotive
excell autovista pvt ltd,19.1427555,72.8430534,"3987, Swami Vivekananda Rd, कांदिवली पश्चिम, Parekh Nagar, Jogeshwari West, Mumbai, Maharashtra 400047, India",automotive
group shaman,19.0759837,72.8776559,"Mumbai, Maharashtra, India",automotive
mansons international pvt. ltd.,19.0759837,72.8776559,"Mumbai, Maharashtra, India",automotive
carcrew,19.0759837,72.8776559,"Mumbai, Maharashtra, India",automotive
linkway honda,19.1133051,72.8880481,"35, Saki Vihar Rd, Saki Vihar, Budhia Jadhav Wadi, Marol, Andheri East, Mumbai, Maharashtra 400072, India",automotive
ad design,19.0429459,72.8571719,"Room no. 384, 90 Feet Rd, near samiyana hotel, Kuttiwadi, Transit Camp, Rajiv Gandhi Nagar, Dharavi, Mumbai, Maharashtra 400017, India",automotive
mynewcar india,19.1485249,72.8328908,"39, Oshiwara Police Station Rd, Oshiwara, Jogeshwari West, Mumbai, Maharashtra 400053, India",automotive
kamal motors (ailsinghani group),19.1081795,72.8586674,"13NX, Abbas Manzil, Chakala Rd, opposite Hotel Ratna Mahal, Parshiwada, Chakala, Andheri East, Mumbai, Maharashtra 400099, India",automotive
shaman wheels pvt ltd - india,19.0733301,72.8701112,"Metro Estate, 178, CST Road, Kolivery Village, MMRDA Area, Kalina, Santacruz East, Mumbai, Maharashtra 400098, India",automotive
agra engineering co.,19.0664513,72.8275455,"Nibbana Annexe, Nargis Dutt Rd, Pali Hill, Mumbai, Maharashtra 400050, India",automotive
balu india,19.0759837,72.8776559,"Mumbai, Maharashtra, India",automotive
ion energy,19.0759837,72.8776559,"Mumbai, Maharashtra, India",automotive
hyperion racing team,19.0759837,72.8776559,"Mumbai, Maharashtra, India",automotive
ald automotive india,19.0759837,72.8776559,"Mumbai, Maharashtra, India",automotive
nikhil automobiles ltd,18.9794492,72.8496813,"XRHX+QVF, New Tank Bandar Rd, Darukhana, Byculla, Mumbai, Maharashtra 400010, India",automotive
shinrai auto services ltd ( shinrai toyota ),19.0759837,72.8776559,"Mumbai, Maharashtra, India",automotive
air works india engineering pvt. ltd.,19.0863894,72.8601418,"8, Kalina Kurla Rd, Navpada, Indian Airlines Staff Colony 2, Santacruz East, Mumbai, Maharashtra 400029, India",aviation & aerospace
bradys,19.0759837,72.8776559,"Mumbai, Maharashtra, India",aviation & aerospace
ncair (national centre for aerospace innovation and research),19.1349022,72.9179053,"2nd Floor, Transit building, Opp. Hill Side Power House, Powai, IIT Area, Powai, Mumbai, Maharashtra 400076, India",aviation & aerospace
icici bank,19.0759837,72.8776559,"Mumbai, Maharashtra, India",banking
state bank of india,19.0759837,72.8776559,"Mumbai, Maharashtra, India",banking
axis bank,19.0759837,72.8776559,"Mumbai, Maharashtra, India",banking
kotak mahindra bank,19.0759837,72.8776559,"Mumbai, Maharashtra, India",banking
yes bank,19.0759837,72.8776559,"Mumbai, Maharashtra, India",banking
bank of baroda,19.0759837,72.8776559,"Mumbai, Maharashtra, India",banking
idbi bank,19.0759837,72.8776559,"Mumbai, Maharashtra, India",banking
bank of india,19.0759837,72.8776559,"Mumbai, Maharashtra, India",banking
idfc bank,19.0759837,72.8776559,"Mumbai, Maharashtra, India",banking
rbl bank,19.0759837,72.8776559,"Mumbai, Maharashtra, India",banking
dcb bank,19.0759837,72.8776559,"Mumbai, Maharashtra, India",banking
nabard,19.0759837,72.8776559,"Mumbai, Maharashtra, India",banking
bank of baroda,19.0759837,72.8776559,"Mumbai, Maharashtra, India",banking
union bank of india,19.0759837,72.8776559,"Mumbai, Maharashtra, India",banking
state bank of mauritius,19.0759837,72.8776559,"Mumbai, Maharashtra, India",banking
svc bank,19.0759837,72.8776559,"Mumbai, Maharashtra, India",banking
asset reconstruction company (india) ltd.,19.0243123,72.8446071,"10th Floor, The Ruby, The Ruby, 29, Senapati Bapat Marg, Dadar West, Dadar, Mumbai, Maharashtra 400028, India",banking
crisil risk and infrastructure solutions ltd.,19.0759837,72.8776559,"Mumbai, Maharashtra, India",banking
icici home finance company limited,19.0759837,72.8776559,"Mumbai, Maharashtra, India",banking
state bank of india - a government of india owned public sector bank,19.0759837,72.8776559,"Mumbai, Maharashtra, India",banking
intellegrow,19.0759837,72.8776559,"Mumbai, Maharashtra, India",banking
shri arihant co-op bank ltd.,19.0759837,72.8776559,"Mumbai, Maharashtra, India",banking
fedbank financial services ltd,19.1148819,72.8612327,"A-Wing, Unit No: 511, Kanakia Wall Street, Andheri - Kurla Rd, Hanuman Nagar, Andheri East, Mumbai, Maharashtra 400093, India",financial services
investec capital services india pvt. ltd. (subsidiary of investec bank plc),19.0759837,72.8776559,"Mumbai, Maharashtra, India",banking
the greater bombay co operative bank ltd,19.0759837,72.8776559,"Mumbai, Maharashtra, India",banking
pamcal,19.0759837,72.8776559,"Mumbai, Maharashtra, India",banking
gopinath patil parsik janata sahakari bank ltd,19.1502508,72.9334738,"Shop No. 6,7& 8 Ground Floor, Sachdev Complex, J.M Road , Bhandup (W), Battipada, Bhandup West, Mumbai, Maharashtra 400078, India",banking
himedia laboratories pvt. ltd.,19.0935915,72.9127318,"B - 403 Bhaveshwar Plaza, Near Shreyas Cinema, Lal Bahadur Shastri Rd, Ghatkopar West, Mumbai, Maharashtra 400086, India",biotechnology
aries agro ltd.,19.056975,72.9218844,"Plot No.24, Aries House, Deonar, Govandi East, near BMC East Ward Office, Bhim Nagar, Govandi East, Mumbai, Maharashtra 400043, India",biotechnology
sgs india,19.0759837,72.8776559,"Mumbai, Maharashtra, India",biotechnology
sisco research laboratories pvt. ltd. (srl),19.1121134,72.8596181,"608-B, Satellite, Gazebo, Andheri Ghatkopar Link Rd, Chakala, Andheri (E, Mumbai, Maharashtra 400099, India",biotechnology
rms: regenerative medical services ltd.,19.112329,72.8669373,"2-ABC, Acme Plaza, Andheri Kurla Road, J B Nagar, Andheri East, J B Nagar, Andheri East, Mumbai, Maharashtra 400059, India",biotechnology
zytex,18.995015,72.8339239,"33, New Islam Mill Compound, Mahadev Palav Marg, Currey Road East, Mahadev Palav Marg, Gundecha Garden, Parel, Mumbai, Maharashtra 400012, India",biotechnology
stemade biotech pvt. ltd,19.1133171,72.8694876,"501 Windfall, Sahar Plaza Complex, Andheri- Kurla Road, Andheri East, Bhim Nagar, Andheri East, Mumbai, Maharashtra 400059, India",biotechnology
"roche diagnostics india, neighbouring markets",19.1127034,72.860107,"B 501 / 601 B, 5th & 6th floor, Silver Utopia, Cardinal Gracious Rd, Chakala, Andheri East, Mumbai, Maharashtra 400069, India",biotechnology
jai hind college,18.9345107,72.8252105,"A Rd, Churchgate, Mumbai, Maharashtra 400020, India",biotechnology
specialise instruments marketing company,19.11123,72.9182977,"A-305, Building No.2, 3rd, Kailash Industrial Complex, Park Site Rd, Vikhroli (W, HMPL Surya Nagar, Vikhroli West, Mumbai, Maharashtra 400079, India",biotechnology
biotron healthcare (india) pvt. ltd,19.0597336,72.8988794,"No. 301, Coral Classic, 20th Road, Chembur, Mumbai - 400074, Chembur Gaothan, Chembur, Mumbai, Maharashtra 400071, India",biotechnology
the maharashtra agro industries development corporation ltd (maidc),19.1659126,72.8654398,"Krushi Udyog Bhavan, 5V88+958, दिनकर राव देसाई मार्ग, Aarey Colony, Goregaon, Mumbai, Maharashtra 400065, India",biotechnology
bombay college of pharmacy,19.0770585,72.8601944,"Kolivery Village, Mathuradas Colony, Kalina, 3VG6+R3G, Kolivery Village, Mathuradas Colony, Vakola, Santacruz East, Mumbai, Maharashtra 400098, India",biotechnology
mapra laboratories pvt ltd,18.9941471,72.8272601,"201, Adhyaru Industrial Estate, Sun Mill Compound, Lower Parel, Lower Parel, Mumbai, Maharashtra 400013, India",biotechnology
shushrusha citizen co operative hospital ltd,19.0234501,72.8378333,"Ranade Rd, Dadar West, Dadar, Mumbai, Maharashtra 400028, India",biotechnology
star india,18.9521684,72.8328095,"Building No. 110, Narayan Dhuru Street, 1st Floor, Nakhuda Mohalla, Chippi Chawl, Kalbadevi, Mumbai, Maharashtra 400003, India",broadcast media
viacom18 media private limited,19.0759837,72.8776559,"Mumbai, Maharashtra, India",broadcast media
cnbc tv18,18.9991424,72.8214543,"Shri Ram Mills, Worli Naka, BDD Chawls Worli, Worli, Mumbai, Maharashtra 400018, India",broadcast media
times network,19.0034613,72.8276429,"Trade House, 1st Floor, Kamala Mills Compound, Senapati Bapat Marg, Lower Parel, Lower Parel, Mumbai, Maharashtra 400013, India",broadcast media
big 92.7 fm,19.0759837,72.8776559,"Mumbai, Maharashtra, India",broadcast media
digicable network india pvt ltd,19.0632028,72.8913646,"Road Number 3 Hanuman Nagar Andheri East, Sahakar Nagar, Worli, Mumbai, Maharashtra 400093, India",broadcast media
sony entertainment television,19.1849957,72.8302712,"Interface Blg, Shanti Niketan Building Number 3, Off, New Link Rd, Malad, Mindspace, Malad West, Mumbai, Maharashtra 400064, India",broadcast media
shop cj india,18.9631616,72.8184282,"Apsara Complex, Lamington Rd, Krishna Kunj, Grant Road East, Bharat Nagar, Grant Road, Mumbai, Maharashtra 400007, India",broadcast media
9x media pvt. ltd.,19.1147263,72.8883455,"C/o, My Branch, B, Gala No.1, Ground Floor, Abel Estate, Saki Vihar Rd, behind Finch Restaurant, Ganesh Nagar, Marol, Andheri East, Mumbai, Maharashtra 400072, India",broadcast media
btvi,19.0694217,72.8625272,"Unit 101, Windsor, off CST Road, Vidyanagari Marg, Windsor Ln, Kolivery Village, MMRDA Area, Kalina, Santacruz(E, Mumbai, Maharashtra 400098, India",broadcast media
radio city,19.0759837,72.8776559,"Mumbai, Maharashtra, India",broadcast media
wwil,19.1365259,72.834387,"Plot No. A - 9, CTS No. 700, Veera Desai Rd, next to Bhagwati House, Veera Desai Industrial Estate, Andheri West, Mumbai, Maharashtra 400053, India",broadcast media
barc india,18.9966707,72.8409085,"61, Valencia Tower, 4th Floor, Raj Kamal Marg, Parel East, Parel, E, Maharashtra 400012, India",broadcast media
bloombergquint,19.0238479,72.8451024,"29, Senapati Bapat Marg, Matunga Central Railway Workshop, Hanuman Nagar, Dadar, Mumbai, Maharashtra 400028, India",broadcast media
what's on india media pvt ltd,19.0759837,72.8776559,"Mumbai, Maharashtra, India",broadcast media
ping network ( ping digital broadcast pvt ltd),18.9935024,72.8267989,"318, Adhyaru Industrial Estate, Inside, Sun Mill Compound, opposite Phoenix Mills, Lower Parel, Mumbai, Maharashtra 400013, India",broadcast media
lembaga penyiaran publik radio republik indonesia,19.0759837,72.8776559,"Mumbai, Maharashtra, India",broadcast media
sony pictures networks distribution india,19.0759837,72.8776559,"Mumbai, Maharashtra, India",broadcast media
webstream communications,19.1184185,72.8902719,"1204 - Lodha Supremus Powai, MTNL telephone exchange, Saki Vihar Rd, opp. Saki Vihar, Tunga Village, Chandivali, Powai, Mumbai, Maharashtra 400072, India",broadcast media
zibanka media services pvt. ltd.,19.1804083,72.8326478,"B-202, Paradigm Tower, Malad, Rajan Pada, Mindspace, Borivali West, Mumbai, Maharashtra 400064, India",broadcast media
star tv,19.0759837,72.8776559,"Mumbai, Maharashtra, India",broadcast media
bloomberg tv india,19.0759837,72.8776559,"Mumbai, Maharashtra, India",broadcast media
media worldwide limited,19.0759837,72.8776559,"Mumbai, Maharashtra, India",broadcast media
94.3 radio one india,19.0759837,72.8776559,"Mumbai, Maharashtra, India",broadcast media
media worldwide limited,19.0759837,72.8776559,"Mumbai, Maharashtra, India",broadcast media
sanskar tv,19.0590371,72.8539908,"Vaibhav Chambers Chs Ltd, Bandra Kurla Complex Rd, Kala Nagar, Bandra East, Mumbai, Maharashtra 400051, India",broadcast media
the ideas box,18.9956751,72.8217838,"Block No. 7, Ground Floor, Panchratna Building, Off, Dr Elijah Moses Rd, next to Lokhandwala Residency, Gandhi Nagar, Upper Worli, Worli, Mumbai, Maharashtra 400018, India",broadcast media
media nucleus (i) pvt. ltd.,19.1025326,72.8859576,"903 B, Sagar Tech Plaza Saki Naka, Andheri Kurla Road, Andheri East, Safed Pul, Saki Naka, Mumbai, Maharashtra 400072, India",broadcast media
travelxp 4k | hd,19.0759837,72.8776559,"Mumbai, Maharashtra, India",broadcast media
skandha media services,19.1196343,72.8632441,"B106, Everest Grande, Mahakali Caves Rd, Gundavali, Andheri East, Mumbai, Maharashtra 400093, India",broadcast media
acc limited,18.9348544,72.8278444,"Cement House, 121, Maharshi Karve Rd, Churchgate, Mumbai, Maharashtra 400020, India",building materials
nitco limited,19.0759837,72.8776559,"Mumbai, Maharashtra, India",building materials
nuvoco vistas corp. ltd.,19.0718816,72.8766218,"Equinox Business Park, Star Awas, Lal Bahadur Shastri Rd, Ambedkar Nagar, Kurla West, Kurla, Mumbai, Maharashtra 400070, India",building materials
rmc readymix (india) pvt ltd,19.0873101,72.8873079,"F 56/58, Lbs Marg, Sunder Baug Lane, Kurla West, Kajupada, Kurla, Mumbai, Maharashtra 400070, India",building materials
rak ceramics india pvt. ltd.,19.0759837,72.8776559,"Mumbai, Maharashtra, India",building materials
walplast products pvt ltd,19.0515931,72.910813,"Rainbow Building, Plot No. 13,Sector-24 Mumbai Pune Highway, Service Road, Shivneri Nagar, Turbhe, Navi Mumbai, Maharashtra 400705, India",building materials
shirdi industries limited,19.0144146,72.8378623,"A Wing, 2nd Floor, Mhatre Pen Building, Senapati Bapat Marg, Dadar West, Mumbai, Maharashtra 400028, India",building materials
eurobond industries pvt ltd,19.0759837,72.8776559,"Mumbai, Maharashtra, India",building materials
concepts,19.0759837,72.8776559,"Mumbai, Maharashtra, India",building materials
associate decor ltd,19.0533403,72.824513,"3R3F+8RJ, 15th Rd, Opposite Damian Furniture, Ranwar, Bandra West, Mumbai, Maharashtra 400050, India",building materials
sejal architectural glass ltd,19.2073956,72.8346683,"2nd Floor, Abhilsaha, S V Road, Kandivali West, Kandivali, Maharashtra Nagar, Kandivali West, Mumbai, Maharashtra 400067, India",building materials
kisan mouldings limited,19.1057124,72.9008196,"26 A, Chandivali Farm Rd, Sangharsh Nagar, Chandivali, Andheri East, Mumbai, Maharashtra 400072, India",building materials
chowgule construction technologies pvt ltd,19.0759837,72.8776559,"Mumbai, Maharashtra, India",building materials
cradle runways india pvt.ltd,19.0250901,72.8349639,"217, 2nd Floor, Hind Service Industries, Near Shivaji Park Seaface, Dadar West, Chandrakant Dhuru Wadi, Dadar, Mumbai, Maharashtra 400028, India",building materials
sezal glass ltd,19.2073956,72.8346683,"2nd Floor, Abhilsaha, S V Road, Kandivali West, Kandivali, Maharashtra Nagar, Kandivali West, Mumbai, Maharashtra 400067, India",building materials
mahaphant fiber-cement (south asia) private limited,19.1326454,72.837439,"101, Damji Shamji Udyog Bhavan, Veera Desai Rd, Azad Nagar, Andheri West, Mumbai, Maharashtra 400053, India",building materials
prince pipes and fittings ltd,19.0241848,72.8448042,"8th Floor, The Ruby, 29, Senapati Bapat Marg, Dadar West, Dadar, Kasaravadi, Dadar, Mumbai, Maharashtra 400028, India",building materials
snowcem paints pvt ltd,19.1146667,72.8951231,"Plot No-7, Chandivali Farm Road, Chandivali, Andheri East, Andheri East, Yadav Nagar, Chandivali, Powai, Mumbai, Maharashtra 400072, India",building materials
mukund overseas,18.9499562,72.8405873,"Magnum Hardware , Mukund Overseas , 104 114 Pdemello raod, near Carnac Bunder, Masjid Bandar East, Yellow gate, Mumbai, Maharashtra 400009, India",building materials
ahura mazda group of companies,19.1154632,72.9180494,"A 503, Kailash Industrial Complex, Park Site Rd, HMPL Surya Nagar, Vikhroli West, HMPL Surya Nagar, Vikhroli West, Mumbai, Maharashtra 400079, India",building materials
viva composite panel pvt. ltd. - india,19.110788,72.8714999,"Unit 7, New Tejpal Industrial Estate, Kurla Road Andheri East, Sai Nagar, Ashok Nagar, Saki Naka, Mumbai, Maharashtra 400072, India",building materials
bomanite india,19.0159285,72.8279691,"323-324 Unique Ind'l Estate, Bombay Dyeing Comp., Prabhadevi, RBI Colony, Prabhadevi, Mumbai, Maharashtra 400025, India",building materials
manika moulds private limited,19.0759837,72.8776559,"Mumbai, Maharashtra, India",building materials
safintra roofing india ltd,19.0759837,72.8776559,"Mumbai, Maharashtra, India",building materials
s.b enterprises,19.0759837,72.8776559,"Mumbai, Maharashtra, India",building materials
creative textile mills private limited,19.0759837,72.8776559,"Mumbai, Maharashtra, India",building materials
kores (india) ltd.,19.030536,72.841555,"301, 302 & 201. Ashford Chambers, Lady Jamshedji Road, Mahim West, City Light, Shivaji Park, Mumbai, Maharashtra 400016, India",business supplies and equipment
labindia,19.2303852,72.8393453,"Lokmanya Tilak Rd, in front of dimond talkise, near om jewelers, Mhada Colony, Borivali West, Mumbai, Maharashtra 400092, India",business supplies and equipment
staples india,19.0759837,72.8776559,"Mumbai, Maharashtra, India",business supplies and equipment
praj hipurity systems,19.1742216,72.8447797,"1604, DLH PARK, Swami Vivekananda Rd, near MTNL SIGNAL, Malad, Sunder Nagar, Goregaon West, Mumbai, Maharashtra 400104, India",business supplies and equipment
control print ltd.,19.1066522,72.8813699,"C-106, Hind Saurashtra Ind Estate, Marol Naka, Andheri - Kurla Rd, Mittal Industrial Estate, Marol, Andheri(E, Mumbai, Maharashtra 400059, India",business supplies and equipment
perkinelmer india pvt. ltd.,19.0759837,72.8776559,"Mumbai, Maharashtra, India",business supplies and equipment
leap india pvt. ltd.,19.1991559,72.8573692,"302, Ruby Crescent Business Boulevard, Kandivali, Ashok Nagar, Kandivali East, Mumbai, Maharashtra 400101, India",business supplies and equipment
pyrocrat systems llp,19.0759837,72.8776559,"Mumbai, Maharashtra, India",business supplies and equipment
space office systems (i) pvt ltd,19.118484,72.8534575,"4th floor. empress nucleus, 2, Gundawali Azad Rd, Azad Nagar, Andheri East, Mumbai, Maharashtra 400069, India",business supplies and equipment
kevin enterprises pvt ltd,19.121241,72.8690614,"11, Cross Rd B, Chakala Industrial Area (MIDC), Andheri East, Mumbai, Maharashtra 400093, India",business supplies and equipment
kumar metal industries pvt ltd,19.0617586,72.838432,"101, Kakad Bhavan, 30th Road, Opp. Gaiety Galaxy Cinema, Bandra (West), Western Railway Staff Colony, Bandra West, Mumbai, Maharashtra 400050, India",business supplies and equipment
shah brothers ispat pvt. ltd.,18.9996367,72.8401244,"5B Trust House, Dr. E. Borges Road, Parel (E), Parel East, Parel, Mumbai, Maharashtra 400012, India",business supplies and equipment
frigerio conserva allana limited,18.921292,72.8311045,"4, JA Allana Marg, Apollo Bandar, Colaba, Mumbai, Maharashtra 400001, India",business supplies and equipment
godrej av solutions,19.096661,72.923909,"3WWF+MH7, Pirojshanagar, Vikhroli, Mumbai, Maharashtra 400079, India",business supplies and equipment
orbital systems (bombay) pvt. ltd.,19.1165881,72.8890467,"129, Saki Vihar Rd, Muranjan Wadi, Marol, Andheri East, Mumbai, Maharashtra 400072, India",business supplies and equipment
kristeel shinwa industries ltd,19.1105419,72.8869593,"Krislon House, Saki Vihar Road, Saki naka, Andheri (East), Ganesh Nagar, Marol, Andheri East, Mumbai, Maharashtra 400072, India",business supplies and equipment
modern sales agency i pvt ltd,19.1136111,72.8713889,"Nr.Navneet Hospital,V.P.Cross Road, Bhim Nagar, Andheri East, Mumbai, Maharashtra 400047, India",business supplies and equipment
st xaviers high school,18.9442359,72.8303778,"WRVJ+M5R, Lokmanya Tilak Rd, Dhobi Talao, Chhatrapati Shivaji Terminus Area, Fort, Mumbai, Maharashtra 400001, India",business supplies and equipment
atcomaart,19.0759837,72.8776559,"Mumbai, Maharashtra, India",business supplies and equipment
trident equipments pvt. ltd.,19.1112301,72.918289,"Kailash Industrial Complex, Park Site Rd, Vikhroli (W, HMPL Surya Nagar, Vikhroli West, Mumbai, Maharashtra 400079, India",business supplies and equipment
mahavir traders,19.0292836,72.8413818,"4/206, Roopawala Terrace, Lady Jamshedji Rd, near Mahim (W, City Light, Shivaji Park, Mumbai, Maharashtra 400016, India",business supplies and equipment
sunrise exports,19.1519698,72.8300757,"10 , Chandragupta estate, New link road, Andheri (west), Mhada Colony, Andheri West, Mumbai, Maharashtra 400058, India",business supplies and equipment
kotak securities,19.0759837,72.8776559,"Mumbai, Maharashtra, India",capital markets
hdfc securities,19.0759837,72.8776559,"Mumbai, Maharashtra, India",capital markets
ventura securities ltd,19.0759837,72.8776559,"Mumbai, Maharashtra, India",capital markets
sebi,19.0759837,72.8776559,"Mumbai, Maharashtra, India",capital markets
sbicap securities,18.993631,72.8305461,"Marathon Futurex, Unit No. 1201, B-Wing, 12th Floor, Mafatlal Mills, NM Joshi Marg, Lower Parel East, BDD Chawl, Compound, Mumbai, Maharashtra 400013, India",capital markets
lkp securities ltd,18.958785,72.812637,"3, Na, 3, Gamdevi Rd, Gamdevi, Mumbai, Maharashtra 400007, India",capital markets
centrum capital ltd,19.0759837,72.8776559,"Mumbai, Maharashtra, India",capital markets
asit c. mehta investment interrmediates ltd.,19.1043457,72.8868239,"3rd Floor, Nucleus House, A Wing, Saki Vihar Rd, Sag Baug, Marol, Andheri (E, Mumbai, Maharashtra 400072, India",capital markets
indiabulls ventures limited,19.0759837,72.8776559,"Mumbai, Maharashtra, India",capital markets
bombay stock exchange limited,19.0759837,72.8776559,"Mumbai, Maharashtra, India",capital markets
arihant capital markets ltd,19.0759837,72.8776559,"Mumbai, Maharashtra, India",capital markets
fortune financial services (india) limited,19.1605463,72.9479619,"Integrated Kamal, ATMOSPHERE APARTMENT, A1-102, Hira Nagar, Mulund West, Mumbai, Maharashtra 400080, India",capital markets
decimal point analytics,19.1118916,72.8703181,"5A, B- Wing, Trade Star, Andheri - Kurla Rd, J B Nagar, Andheri East, Mumbai, Maharashtra 400059, India",capital markets
kantilal chhanganlal securities pvt ltd,19.1087967,72.8512774,"7th Floor, Sangita Ellipse Plot No. 32, Tajpal Scheme Sahakar Road, Vile Parle(E) Mumbai, Vishnu Prasad Society, Navpada, Vile Parle East, Vile Parle, Mumbai, Maharashtra 400057, India",capital markets
bse institute ltd,18.9298107,72.8333721,"18th & 19th Floor, Phiroze Jeejeebhoy Towers, Dalal St, Kala Ghoda, Fort, Mumbai, Maharashtra 400001, India",capital markets
national institute of securities markets,19.0759837,72.8776559,"Mumbai, Maharashtra, India",capital markets
r k global,19.0759837,72.8776559,"Mumbai, Maharashtra, India",capital markets
power exchange india limited,19.115374,72.8809031,"9th Floor, #901 , Sumer Plaza, Marol Maroshi Rd, Sankasth Pada Welfare Society, Marol, Andheri East, Mumbai, Maharashtra 400059, India",capital markets
national spot exchange mumbai,19.0759837,72.8776559,"Mumbai, Maharashtra, India",capital markets
iragecapital advisory private limited,19.11404,72.892827,"A-207, Boomerang, Andheri East, Chandivali Farm Rd, Yadav Nagar, Chandivali, Powai, Mumbai, Maharashtra 400072, India",capital markets
pentad securities,19.071658,72.865511,"1st Floor, 159, E, Vinay Bhavya Complex, CST Road, Santacruz, Mumbai, MMRDA Area, Kalina, Santacruz East, Mumbai, Maharashtra 400098, India",capital markets
valuefy,19.1701792,72.8603179,"WeWork Oberoi Commerz 1, 2, Colony, Mohan Gokhale Rd, Aarey Colony, Goregaon, Mumbai, Maharashtra 400063, India",capital markets
idbi trusteeship services ltd,18.9341389,72.8338579,"Ground Floor, Universal Insurance Building, Sir Phirozshah Mehta Rd, Fort, Mumbai, Maharashtra 400001, India",capital markets
bigshare services pvt ltd,19.1200878,72.8644888,"Office No S6-2, 6th, PINNACLE BUSINESS PARK, Mahakali Caves Rd, next to Ahura Centre, Shanti Nagar, Andheri East, Mumbai, Maharashtra 400093, India",capital markets
s-ancial,18.988758,72.827818,"215 Shiv Shakti Industrial Premises, Jivraj Ramji Boricha Marg, Shastri Nagar, Adarsh Nagar, Worli, Mumbai, Maharashtra 400011, India",capital markets
united stock exchange of india,19.0759837,72.8776559,"Mumbai, Maharashtra, India",capital markets
xion multiventures (arb group india),19.2189184,72.8654844,"Western Edge I, Western Express Hwy, Food Corporation of India Warehouse, Borivali East, Mumbai, Maharashtra 400066, India",capital markets
progressive share brokers pvt ltd,19.1360055,72.8288472,"Laxmi Nagar Rd, Laxmi Industrial Estate, Laxmi Nagar, Goregaon West, Mumbai, Maharashtra 400104, India",capital markets
stockaxis,18.9146917,72.8211191,"Tower E, 85 Maker, GD Somani Rd, Ganesh Murti Nagar, Cuffe Parade, Mumbai, Maharashtra 400021, India",capital markets
institutional investor advisory services (iias),19.0759837,72.8776559,"Mumbai, Maharashtra, India",capital markets
taurus corporate advisory services limited,19.1009011,72.8396518,"Cosmos Court, S.V. Road, 4R2Q+9V6, Vile Parle West, opp. IOL Petrol Pump, Navpada, Kamala Nagar, Vile Parle West, Mumbai, Maharashtra 400056, India",capital markets
excel mercantile pvt. ltd.,19.0759837,72.8776559,"Mumbai, Maharashtra, India",capital markets
upl limited (formerly known as united phosphorus ltd.),19.0855941,72.8378507,"V-Fortune Building, 3rd Floor, Swami Vivekanand Rd, Hasmukh Nagar, Santacruz West, Hasmukh Nagar, Santacruz West, Mumbai, Maharashtra 400054, India",chemicals
tata chemicals,19.117385,72.9264773,"Raj Legacy, WING-C, Lal Bahadur Shastri Rd, Surya Nagar, Gandhi Nagar, Vikhroli West, Mumbai, Maharashtra 400083, India",chemicals
rallis india ltd,18.9256838,72.8215739,"156/157 15th Floor, Nariman Bhavan, 227, Nariman Point, Mumbai, Maharashtra 400021, India",chemicals
vvf ltd.,19.0445617,72.8680475,"109, Air Force Quarters, Sion East, Sion, Mumbai, Maharashtra 400022, India",chemicals
birla carbon,19.0759837,72.8776559,"Mumbai, Maharashtra, India",chemicals
indofil chemical company,19.0759837,72.8776559,"Mumbai, Maharashtra, India",chemicals
"aarti industries ltd. , india",19.0759837,72.8776559,"Mumbai, Maharashtra, India",pharmaceuticals
ppg asian paints,19.0705435,72.8642209,"158, Vidyanagari Marg, CST Road, Dani Wooltex Compound, Kalina, Santacruz, East, Kolivery Village, MMRDA Area, Kalina, Santacruz East, Mumbai, Maharashtra 400098, India",chemicals
reliance corporate it park limited,19.0759837,72.8776559,"Mumbai, Maharashtra, India",chemicals
gharda chemicals limited,19.0559824,72.8327665,"Gharda House, 48, Hill Rd, Bandra West, Mumbai, Maharashtra 400050, India",chemicals
biostadt india limited,18.9915502,72.8135714,"6th Floor, Poonam Chamber, `A` Wing, Dr Annie Besant Rd, Markandeshwar Nagar, Shiv Sagar Estate, Worli, Mumbai, Maharashtra 400018, India",chemicals
godavari biorefineries limited,19.0759837,72.8776559,"Mumbai, Maharashtra, India",chemicals
aditya birla chemicals,19.006805,72.819825,"No. 1/A, Sudam Kalu Ahire Marg, B Wing, Worli, Mumbai, Maharashtra 400030, India",chemicals
chembond chemicals ltd,19.0759837,72.8776559,"Mumbai, Maharashtra, India",chemicals
roha dyechem pvt ltd,19.1167778,72.866277,"JJT House, Plot No. A/44-45, Road No.2, M.I.D.C, Andheri East, Rd Number 2, Mulgaon, Andheri East, Mumbai, Maharashtra 400093, India",chemicals
vinati organics limited,19.0612658,72.8681681,"Parinee Crescenzo, “A” Wing, 11th floor, 1102, behind MCA, G Block BKC, Bandra Kurla Complex, Bandra East, Mumbai, Maharashtra 400051, India",chemicals
galaxy surfactants limited,19.0759837,72.8776559,"Mumbai, Maharashtra, India",chemicals
cheminova india limited,19.0565601,72.8533794,"The Centurium, Unit.no.2, 4th Floor, Phoenix Market City, LBS Marg , Kurla West, E Block BKC, Bandra Kurla Complex, Bandra East, Mumbai, Maharashtra 400070, India",chemicals
laxmi organic industries ltd.,18.9270197,72.8216278,"WRGC+RM2, Ramnath Goenka Marg, Nariman Point, Mumbai, Maharashtra 400021, India",chemicals
dsm coating resins,19.0759837,72.8776559,"Mumbai, Maharashtra, India",chemicals
fine organic industries private limited,19.119527,72.913777,"Delta 6th floor, Technology Street, Hiranandani Gardens, Powai,, Mumbai-400076, Hiranandani Gardens, Sainath Nagar, Powai, Mumbai, Maharashtra 400076, India",chemicals
camlin fine sciences,19.074343,72.8607363,"2nd floor, In G.S. Point, CST Road, Kolivery Village, Vidya Nagari, Kalina, Santacruz East, Mumbai, Maharashtra 400098, India",chemicals
vasu chemicals,19.1168765,72.881846,"VASU Center, Military Rd, opp. Blossom Co-operative Housing Society, Sankasth Pada Welfare Society, Marol, Andheri East, Mumbai, Maharashtra 400059, India",chemicals
nocil ltd,18.9255728,72.8242221,"49, Mittal Tower, Nariman Point, Nariman Point, Mumbai, Maharashtra 400021, India",chemicals
alkyl amines chemicals limited,19.0041098,72.8170441,"207A, Kakad Chambers, 132, Dr Annie Besant Rd, B Wing, BDD Chawls Worli, Worli, Mumbai, Maharashtra 400018, India",chemicals
ssf plastics india pvt ltd,19.120627,72.860655,"3 C/D, 32 Corporate Avenue, Off Mahakali Caves Rd, near Paper Box lane, Satya Darshan Colony, Gundavali, Andheri East, Mumbai, Maharashtra 400093, India",chemicals
k..patel international (k.patel group company),19.1593396,72.8426859,"Sunder Nagar, Swami Vivekananda Rd, next to Dalmia College, Siddharth Nagar, Goregaon West, Mumbai, Maharashtra 400062, India",chemicals
dai-ichi india,18.9416087,72.8272284,"Sir Vithaldas Chambers, 3rd Floor, Liberty Building, near Bombay Hospital & Medical Research Centre, New Marine Lines, Churchgate, Mumbai, Maharashtra 400020, India",chemicals
visen industries ltd.,19.1820138,72.8469953,"400, 058, Swami Vivekananda Rd, Malad, Reserve Bank of India Staff Quarters, Raheja Twp, Andheri West, Mumbai, Maharashtra 400064, India",chemicals
bombay dyeing and manufacturing company ltd(wadia group hq),19.0759837,72.8776559,"Mumbai, Maharashtra, India",chemicals
nicomet industries limited,19.0959406,72.8489321,"155, Maker Chambers III, Opp Inox Theatre, Nariman Point, Andheri East, Navpada, Vile Parle East, Vile Parle, Mumbai, Maharashtra 400021, India",chemicals
godrej industries limited,19.009078,72.8610177,"A,B,C, 2V56+JCJ, Sewri Ford Rd, Pratiksha Nagar, BPCL Terminal, Wadala, Mumbai, Maharashtra 400015, India",consumer goods
diversey india,19.1185544,72.8696713,"501, 5th Floor, Ackruti Centre Point, MIDC, Chakala Industrial Area (MIDC), Andheri East, Mumbai, Maharashtra 400093, India",chemicals
mahalaxmi group,19.168448,72.8545649,"206 Vishveshwar Nagar Road मालाड Reserve Bank of India Staff Quarters, Raheja Twp, Goregaon, Mumbai, Maharashtra 400063, India",chemicals
indokem limited,19.0369669,72.8464466,"Khatau house, 2RPW+QHP, Moghul Lane, Mahim, Bethany Co-Operative Housing Society, New Dinkar Co Operative Housing Society, Mahim, Mumbai, Maharashtra 400016, India",chemicals
sajjan india limited,18.9978863,72.8288712,"14th Floor, Urmi Estate, Ganpatrao Kadam Marg, Nagin Nagar Chawl, Dhuru Wadi, Lower Parel, Mumbai, Maharashtra 400013, India",chemicals
auchtel products ltd. (formerly henkel chemicals (india) ltd,18.9994925,72.8307963,"2nd Floor, Victor House, NM Joshi Marg, Parel West, Lower Parel, Mumbai, Maharashtra 400013, India",chemicals
mosil lubricants private limited,19.0380988,72.8592364,"166, Rd Number 24B, RB2 Central Railway Quarters, Jain Society, Sion, Mumbai, Maharashtra 400022, India",chemicals
lona industries,19.025713,72.836138,"82, West, Gharkul Apartment, Dr Madhukar B Raut Marg, Dadar West, Shivaji Park, Mumbai, Maharashtra 400028, India",chemicals
national organic chemical industries ltd (nocil),19.0759837,72.8776559,"Mumbai, Maharashtra, India",chemicals
esdee paints ltd,19.0759837,72.8776559,"Mumbai, Maharashtra, India",chemicals
innovassynth technologies (i) limited,19.0759837,72.8776559,"Mumbai, Maharashtra, India",chemicals
the crescent group,19.0694734,72.861599,"WINDSOR, 2ND FLOOR, CST ROAD, KALINA,SANTACRUZ ( E ), Kolivery Village, MMRDA Area, Kalina, Santacruz East, Mumbai, Maharashtra 400098, India",chemicals
anand engineers pvt ltd.,19.1205976,72.8738809,"Plot no. 66, Rd Number 13, Marol MIDC Industry Estate, Andheri East, Mumbai, Maharashtra 400093, India",chemicals
ganesh benzoplast limited,18.944533,72.825087,"No. 53, Maharshi Karve Rd, Dhus wadi, Sonapur, Marine Lines, Mumbai, Maharashtra 400002, India",chemicals
heranba industries ltd,19.2263329,72.8530351,"Bankof baroda Jain Derasar Marg, A Wing, 2nd Floor, Fortune Avirahi, Heranba Industries Limited, Jambli Galli, Bhatt Chawl, Mini Zaveri Bazaar, Mhatre Wadi, Borivali West, Mumbai, Maharashtra 400092, India",chemicals
kumar metal industries private limited,19.0617586,72.838432,"101, Kakad Bhavan, 30th Road, Opp. Gaiety Galaxy Cinema, Bandra (West), Western Railway Staff Colony, Bandra West, Mumbai, Maharashtra 400050, India",chemicals
sarex chemicals ltd,19.1160267,72.8407903,"501, Waterford, C' Wing, CD Barfiwala Road, Zalawad Nagar, Juhu Lane, Ganga Vihar, Andheri West, Mumbai, Maharashtra 400058, India",chemicals
buzil rossari pvt. ltd.,19.1325706,72.9279976,"201 - A & B, Akruti Corporate Park, Lal Bahadur Shastri Rd, next to GE Gardens, MMRDA Colony, Ambedkar Nagar, Kanjurmarg West, Kanjurmarg East, W, Maharashtra 400078, India",chemicals
hemani industries limited,19.0799085,72.8960803,"Neelkanth Business Park, C,301, 3rd, Ramdev Mandir Road, Sadguru Nagar, Neelkanth Kingdom, Vidyavihar West, Vidyavihar, Mumbai, Maharashtra 400086, India",chemicals
loba chemie pvt. ltd.,18.9134288,72.8224607,"107, Wodehouse Rd, near Bank of india, Cuffe Parade, Mumbai, Maharashtra 400005, India",chemicals
rolex lanolin products ltd,18.9462891,72.8290251,"Door No. 24/ 26, 1st Floor, Jivraj Shamji Building, Babu Genu Road, Princess Street, Marine Lines East, Bhangwadi, Kalbadevi, Mumbai, Maharashtra 400002, India",chemicals
armaco chemical process systems pvt ltd,18.9634517,72.8139389,"A/6, Venus, Navroji Vakil Street, Nana Chowk, Grant Road (W), Grant Road (W), Tardeo, Mumbai, Maharashtra 400007, India",chemicals
mazda colours ltd,18.9303403,72.8230691,"No. 178, N. K Mehta International, Babubhai M Chinai Rd, Backbay Reclamation, Nariman Point, Mumbai, Maharashtra 400021, India",chemicals
"azeotropy, iit bombay",19.0759837,72.8776559,"Mumbai, Maharashtra, India",chemicals
jay chemicals,19.0769994,72.8916904,"C-303, Neelkanth Business Park, Vidyavihar station skywalk, Neelkanth Kingdom, Vidyavihar West, Vidyavihar, Mumbai, Maharashtra 400086, India",chemicals
rama phosphates ltd,18.9231905,72.8231743,"Free Press House, F P Journal Road, Nariman Point, WRFF+77F, Nariman Point, Mumbai, Maharashtra 400021, India",chemicals
multi organics pvt ltd,19.0564206,72.8525772,"503, Keshava Building, E Block BKC, Bandra Kurla Complex, Bandra East, Mumbai, Maharashtra 400051, India",chemicals
paxchem ltd.,19.0346256,72.8434547,"Shreyas, Plot No. 72, Mogul Ln, Mahim West, Mahim, Mumbai, Maharashtra 400016, India",chemicals
kairav chemofarbe industries limited,18.9347429,72.8366853,"6, Kitab Mahal, 192 D. N. Road, Fort, Borabazar Precinct, Ballard Estate, Fort, Mumbai, Maharashtra 400001, India",chemicals
universal starch chem allied ltd,19.0759837,72.8776559,"Mumbai, Maharashtra, India",chemicals
kasyap sweetners limited,18.9974856,72.8164128,"84, Marthanda, Dr Annie Besant Rd, Maya Nagar, Siddharth Nagar, Worli, Mumbai, Maharashtra 400018, India",chemicals
guljag industries limited,18.9086561,72.8124046,"19, Prem Court, Jamshedji Tata Road, 119, Backbay Reclamation, Prem Court, New Navy Nagar, Backbay Reclamation, Colaba, Mumbai, Maharashtra 400020, India",chemicals
zest aromas pvt. ltd,19.1134808,72.8612007,"C-401, Business Square, Chakala, Andheri Kurla Road, opp. Kanakia Wall Street, Andheri East, Mumbai, Maharashtra 400093, India",chemicals
britacel silicones limited,19.0759837,72.8776559,"Mumbai, Maharashtra, India",chemicals
poddar pigments limited,19.1353963,72.8327283,"No 302, Nanak Chambers, 3rd Floor, Opposite Fun Republic, Off New Link Road, Andheri (West), Veera Desai Industrial Estate, Andheri West, Mumbai, Maharashtra 400053, India",chemicals
cht india pvt ltd,19.1118029,72.8606414,"121-122 Solitaire Corporate Park, 151, M.V Road, Chakala, Andheri East, Mumbai, Maharashtra 400093, India",chemicals
ivp limited,19.0759837,72.8776559,"Mumbai, Maharashtra, India",chemicals
gopaldas visram and company limited,19.0366149,72.8731558,"Gbc Packaging, A/303, 3rd Floor, Business Square,vishwalaxmi, Mukundrao Ambedkar Rd, near Bata Showroom, Kokri Agar, Andheri W, Mumbai, Maharashtra 400002, India",chemicals
ecosterile,19.0759837,72.8776559,"Mumbai, Maharashtra, India",chemicals
ibi chematur engineering & consultancy ltd.,19.1031895,72.8797052,"S-86,IBI House, Andheri - Kurla Rd, Chimatpada, Marol, Andheri East, Mumbai, Maharashtra 400059, India",chemicals
hp international,19.112909,72.858594,"G-11, Unique House, Chakala Cross Road, Andheri East, Andheri East, Mumbai, Maharashtra 400099, India",chemicals
kk india petroleum specialities p. ltd.,19.1185504,72.8359973,"4R9P+C9H, Gulmohar Colony, Juhu, Mumbai, Maharashtra 400058, India",chemicals
esaar international,19.111316,72.878985,"405, Monarch Chambers, Marol Maroshi Rd, Gamdevi, Marol, Andheri East, Mumbai, Maharashtra 400059, India",chemicals
polmann india limited,18.9255728,72.8242221,"Maker Chamber V, N Subhashchandra Road, Nariman Point, Nariman Point, Mumbai, Maharashtra 400021, India",chemicals
vadivarhe speciality chemicals limited,19.0759837,72.8776559,"Mumbai, Maharashtra, India",chemicals
centech engineers pvt. ltd.,19.0759837,72.8776559,"Mumbai, Maharashtra, India",chemicals
pioma chemicals,19.1013214,72.8457361,"101-103, Shyam Kamal 'D',, Agarwal Market,, Vile Parle (East), Agarwal Market, Vile Parle East, Vile Parle, Mumbai, Maharashtra 400057, India",chemicals
universal speciality chemical pvt. ltd.,19.0608002,72.8867202,"Universal House, 28/A, Kamgar Nagar Rd, Kamgaar Nagar, Kurla, Mumbai, Maharashtra 400024, India",chemicals
dial 1298 for ambulance,19.0759837,72.8776559,"Mumbai, Maharashtra, India",civic & social organization
all india institute of local self-government,19.0759837,72.8776559,"Mumbai, Maharashtra, India",civic & social organization
light of life trust,19.0602378,72.8650861,"ONE BKC, C-Wing, Unit No.1519, Plot No, C - 66, near Indian Oil Petrol Pump, G Block BKC, Bandra Kurla Complex, Bandra East, Mumbai, Maharashtra 400051, India",civic & social organization
safecity,19.0759837,72.8776559,"Mumbai, Maharashtra, India",civic & social organization
haqdarshak empowerment solutions,19.0759837,72.8776559,"Mumbai, Maharashtra, India",civic & social organization
st. jude india childcare centres,19.0759837,72.8776559,"Mumbai, Maharashtra, India",civic & social organization
yes foundation (india),19.0759837,72.8776559,"Mumbai, Maharashtra, India",civic & social organization
stup consultants p. ltd,18.9266293,72.8222668,"1004 & 5, Raheja Chambers, 213, Nariman Point, Nariman Point, Mumbai, Maharashtra 400021, India",civil engineering
irb infrastructure developers (i) ltd,19.0759837,72.8776559,"Mumbai, Maharashtra, India",civil engineering
gherzi eastern ltd,19.112488,72.864622,"C&B Square, Sangam Complex, 127, Andheri - Kurla Rd, Dr. Charatsingh Colony, S B Singh Colony, J B Nagar, Andheri East, Mumbai, Maharashtra 400059, India",civil engineering
j kumar infraprojects ltd,19.1077024,72.8521423,"Subhash Rd, Vishnu Prasad Society, Navpada, Vile Parle East, Vile Parle, Mumbai, Maharashtra 400057, India",civil engineering
bharat wire ropes ltd,19.002339,72.829063,"A-701, Trade World Building, Kamala Mills, Senapati Bapat Marg, Lower Parel West, Lower Parel, Mumbai, Maharashtra 400013, India",civil engineering
wadia techno-engineering services ltd,19.081655,72.853892,"RAHEJA POINT 1 A WING Pt, Nehru Rd, P and T Colony, Vakola, Santacruz East, Mumbai, Maharashtra 400055, India",civil engineering
the indian hume pipe co. ltd.,18.9371815,72.8399261,"Construction House, 3rd Floor, Walchand Hirachand Marg, Ballard Estate, Fort, Mumbai, Maharashtra 400001, India",civil engineering
sacpl,19.0975471,72.8497778,"Gr. Floor B-Wing, Brij Bhoomi, Nehru Rd, behind Canara Bank, Gujarati Society, Vile Parle East, Vile Parle, E). Mumbai, Maharashtra 400057, India",civil engineering
mahimtura consultants pvt. ltd.,18.9329072,72.8345909,"3rd Floor, Unique House, 25, Syed Abdullah Brelvi Marg, Kala Ghoda, Fort, Mumbai, Maharashtra 400001, India",civil engineering
fugro geotech (india) pvt. ltd.,19.0759837,72.8776559,"Mumbai, Maharashtra, India",civil engineering
aker powergas private limited,19.129588,72.9306141,"Beta building, i-Think Techno Campus, Aker Powergas Pvt Ltd, Nehru Nagar, Kanjurmarg East, Mumbai, Maharashtra 400042, India",civil engineering
mumbai metro rail corporation,19.0563634,72.8547497,"E Block BKC, Bandra Kurla Complex, Bandra East, Mumbai, Maharashtra 400051, India",civil engineering
hamon shriram cottrell private limited,19.1529107,72.8837457,"3A-8A, Main Frame, Complex, Royal Palms, Aarey Colony, Goregaon, Royal Palms Estate, Aarey Colony, Goregaon, Mumbai, Maharashtra 400065, India",civil engineering
michigan engineers pvt. ltd.,18.9735783,72.8137308,"Shop No. D-7, Commerce Center Co-Operative Society Limited, No. 78, Javji Dadaji Marg, Tardeo Rd, Janata Nagar, Tardeo, Mumbai, Maharashtra 400034, India",civil engineering
nina waterproofing systems pvt ltd,19.0099583,72.8365438,"4th floor, Naman Midtown, SB Marg, Elphinstone (W), Near, TOWER-3, Babasaheb Ambedkar Nagar, Mumbai, Maharashtra 400013, India",civil engineering
knd engineering technologies ltd.,18.9270268,72.8330362,"6-A 22-6, Rampart House, K Dubash Marg, Kalaghoda, Kalaghoda, Lion Gate, Fort, Mumbai, Maharashtra 400023, India",civil engineering
"sika india private limited, ahmedabd",19.0759837,72.8776559,"Mumbai, Maharashtra, India",civil engineering
mayuresh realty pvt. ltd.,19.0759837,72.8776559,"Mumbai, Maharashtra, India",civil engineering
strata geosystems (india) pvt. ltd.,19.117174,72.868117,"Sabnam House, Plot No. A – 15/16, Central Cross Road, behind MIDC Police Station, MIDC, Andheri East, Mumbai, Maharashtra 400093, India",civil engineering
sanguine infra tech,19.136531,72.834441,"Unit No-102, Durga Chambers CS Ltd, Plot No A-8, Off Fun Republic Lane, Veera Desai, Andheri ( West ), Veera Desai Industrial Estate, Andheri West, Mumbai, Maharashtra 400058, India",civil engineering
techflow engineers,19.0759837,72.8776559,"Mumbai, Maharashtra, India",civil engineering
colliers international india,19.0094151,72.8358406,"Indiabulls Finance Centre, 17th Floor, Unit No. 1701, Tower 3 Senapati Bapat Marg, West, Elphinstone, Babasaheb Ambedkar Nagar, Mumbai, Maharashtra 400013, India",commercial real estate
prozone enterprises pvt ltd,19.0759837,72.8776559,"Mumbai, Maharashtra, India",commercial real estate
sankpal realty,19.1146885,72.8499995,"Hubtown Solaris, 620/A, opp. Teli Gali, Vijay Nagar, Andheri East, Mumbai, Maharashtra 400053, India",commercial real estate
dreamspace india,19.1220663,72.866448,"411 , Lodha Supremus, Off Mahakali Caves Rd, next to hotel Bindra supremacy, Box, Chakala Industrial Area (MIDC), Andheri East, Mumbai, Maharashtra 400093, India",commercial real estate
network intelligence (i) pvt. ltd.,19.0759837,72.8776559,"Mumbai, Maharashtra, India",computer & network security
precision techserve pvt ltd,19.0759837,72.8776559,"Mumbai, Maharashtra, India",computer & network security
netplace technologies pvt ltd.,19.1135989,72.8586203,"105 Nahar & Seth Industrial Estate, Cardinal Gracious Rd, next to P&G Plaza, Chakala, Andheri East, Mumbai, Maharashtra 400093, India",computer & network security
netmonastery inc.,19.1284226,72.9258769,"2nd Floor, Reliable House, Above Bank of Baroda, Station Rd, Laxmi Udyog Nagar, Kanjurmarg West, Bhandup West, Mumbai, Maharashtra 400078, India",computer & network security
l a technologies,19.0721715,72.8703373,"101B, Pinnacle Corporate Park B Wing, First Floor, CTS 4207 Part, Kolivery Village, MMRDA Area, Bandra Kurla Complex, East, Mumbai, Maharashtra 400051, India",computer & network security
aaa technologies pvt. ltd.,19.0759837,72.8776559,"Mumbai, Maharashtra, India",computer & network security
gajshield infotech,18.9957817,72.8385316,"4, Peninsula Centre, Dr SS Rao Marg, Parel East, Parel, Mumbai, Maharashtra 400012, India",computer & network security
security brigade infosec private limited,18.993032,72.826369,"3rd Floor, Kohinoor Estate, 165, Sun Mills Compound Rd, Lower Parel, Mumbai, Maharashtra 400013, India",computer & network security
nettech india,19.1185716,72.8446977,"187/A , 1st Floor, Sukhmani Building, Swami Vivekananda Rd, opposite NADCO Shopping Centre, above Top 10 Mobile Shop, Shree Ram Nagar, Andheri West, Mumbai, Maharashtra 400058, India",computer & network security
arrka,19.1435906,72.8246291,"Lokhandwala Complex, Andheri West, Mumbai, Maharashtra 400053, India",computer & network security
mass infonet pvt.ltd.,19.0558433,72.8392755,"6, Veena Beena, Gurunanak Rd, Bandra West, Mumbai, Maharashtra 400050, India",computer & network security
know-all-edge networks,19.1763315,72.8348851,"Unit No.43, 2nd Floor, Sumatinath Industrial Estate, Mind Space, Chincholi Bunder Rd, Malad, Mindspace, Malad West, Mumbai, Maharashtra 400064, India",computer & network security
play games24x7 private limited,19.061022,72.867912,"B Wing, 8th Floor, C-38/39, Parinee Crescenzo, G Block BKC, Bandra Kurla Complex, Bandra East, Mumbai, Maharashtra 400051, India",computer games
reliance games,19.0759837,72.8776559,"Mumbai, Maharashtra, India",computer games
nazara technologies,18.9251196,72.8230908,"51-57, 3, Nariman Point, Mumbai, Maharashtra 400021, India",computer games
indiagames ltd.,19.0759837,72.8776559,"Mumbai, Maharashtra, India",computer games
apar games,19.1867737,72.8356748,"210, 2nd floor, Linkway Industrial Estate, Chincholi Bunder Link Road, Malad West, Malad, Evershine Nagar, Malad West, Mumbai, Maharashtra 400064, India",computer games
gametion,19.0759837,72.8776559,"Mumbai, Maharashtra, India",computer games
nileegames,19.221169,72.8533018,"508, 5th floor, Fly Edge Building, Swami Vivekananda Rd, Meghdoot, Hari Om Nagar, Borivali West, Mumbai, Maharashtra 400092, India",computer games
glamble gaming network,19.079618,72.896268,"D-509, Neelkanth Business Park., Nathani Road, Vidyavihar (W)., Sadguru Nagar, Neelkanth Kingdom, Vidyavihar West, Vidyavihar, Mumbai, Maharashtra 400086, India",computer games
asus india,19.0759837,72.8776559,"Mumbai, Maharashtra, India",computer hardware
best it world (india) pvt. ltd.,19.1198931,72.8652668,"87, Mistry Industrial Estate, M I D C Cross Road, Andheri East, Shanti Nagar, Andheri East, Mumbai, Maharashtra 400093, India",computer hardware
dixit infotech services pvt ltd,19.081977,72.8954844,"509, 5th floor, Neelkanth Corporate It Park, Kirol Village, Vidyavihar West, Vidyavihar, Mumbai, Maharashtra 400086, India",computer hardware
shivam enterprises,19.1608784,72.8530673,"Gala no: 16, Universal Industrial Estate, IB Patel Rd, opposite to Bank of India, Sonawala Industry Estate, Goregaon, Mumbai, Maharashtra 400063, India",computer hardware
xpress,19.1338725,72.8252345,"Sanman Soc, Model JP Rd, Shilpa Housing Society, Four Bungalows, Andheri West, Mumbai, Maharashtra 400053, India",computer hardware
markss infotech ltd,19.2061647,72.8251793,"70-B KCIEL, post office lane, Kandivali, Charkop, Charkop Gaon, Kandivali West, Mumbai, Maharashtra 400067, India",computer hardware
pentagon system and services pvt. ltd.,19.1139579,72.8598097,"501, Pramukh Plaza, Cardinal Gracious Rd, Chakala, Andheri East, Mumbai, Maharashtra 400099, India",computer hardware
infobahn technical solutions (i) pvt. ltd.,19.1293537,72.9302939,"604 Lodha Supremus 3, i-Think Techno Campus, Nehru Nagar, Kanjurmarg East, Mumbai, Maharashtra 400042, India",computer hardware
computer infotech (india) pvt. ltd.,18.9704472,72.8145884,"Shop Number H-6, Everest Building, Tardeo Circle, Madan Mohan Malaviya Marg, Tardeo Rd, Janata Nagar, Tardeo, Mumbai, Maharashtra 400034, India",computer hardware
jetking,19.0759837,72.8776559,"Mumbai, Maharashtra, India",computer networking
d-link india limited,19.1173159,72.8542942,"D-Link (India) Limited, 304/305, 3rd Floor, Express Chambers, Sir Mathuradas Vasanji Rd, opp. Natraj by Rustomjee, near Vishal Hall, Azad Nagar, Andheri East, Mumbai, Maharashtra 400069, India",computer networking
smartlink network systems limited,19.0759837,72.8776559,"Mumbai, Maharashtra, India",computer networking
infonet network systems india pvt ltd,19.1543732,72.8325422,"B 39 Oshiwara Industrial Centre , Andheri, New Link Rd, Bhagat Singh II, Goregaon West, Mumbai, Maharashtra 400104, India",computer networking
magnum networks support pvt ltd,19.1029443,72.8863518,"608, Sagar Tech Plaza B, Andheri - Kurla Rd, Safed Pul, Saki Naka, Mumbai, Maharashtra 400072, India",computer networking
newtech computer services pvt. ltd,19.1168451,72.903566,"No 6, Powai Vihar Rd, MHADA Colony 20, Powai, Mumbai, Maharashtra 400072, India",computer networking
kepri computers pvt. ltd.,18.9531702,72.8362468,"3rd Floor, 233/35, K.P.Bhatia Building, Office No.13, Samuel St, Khand Bazar, Masjid Bandar West, Masjid Bandar, Mumbai, Maharashtra 400003, India",computer networking
metainfotech,19.1184155,72.8704486,"Meta Infotech Private Limited 118/119, Ackruti Star, MIDC Central Rd, Chakala Industrial Area (MIDC), Andheri East, Mumbai, Maharashtra 400093, India",computer networking
zone startups/india,18.9297606,72.8332303,"Phiroze Jeejeebhoy Towers, Dalal St, Kala Ghoda, Fort, Mumbai, Maharashtra 400001, India",computer networking
rave technologies - a northgate public services company,19.0060379,72.8218173,"Century Mills, 21, Pandurang Budhkar Marg, BDD Chawls Worli, Lower Parel, Mumbai, Maharashtra 400013, India",computer software
ag technologies,19.1455768,72.8552754,"3rd Floor, Silver Metropolis, Off, Western Express Hwy, NESCO, Goregaon, Mumbai, Maharashtra 400063, India",computer software
tinyowl,19.1116368,72.909091,"Unit No.102 &103, 1st Floor, A Wing, Supreme Business Park, Supreme City, Hiranandani Gardens, Powai, Hiranandani Gardens, Powai, Mumbai, Maharashtra 400076, India",computer software
miles software solutions private limited,19.1132112,72.8666924,"No. 34/3, Suraksha Ace, Andheri Kurla Road Chakala, Vijay Nagar Colony, J B Nagar, Andheri East, Mumbai, Maharashtra 400059, India",computer software
udyog software india ltd.,19.0941555,72.914081,"56/58, 1st Floor, Dadajee Dhakjee Building, Garibdas Street, Vadagadi, Vadagadi, Nityanand Nagar, Ghatkopar West, Mumbai, Maharashtra 400003, India",computer software
orcapod,19.1645369,72.9374322,"804, Nirmal Lifestyle Mall, Neelkanth Corporate Park, Lal Bahadur Shastri Rd, Moti Nagar, Mulund Colony, Mulund West, Mumbai, Maharashtra 400080, India",computer software
credence analytics,19.1800469,72.8342861,"604, Eureka Towers Mind Space, Dheeraj Sagar Apartment-B Wing, New Link Rd, next to D'Mart, Malad, Rajan Pada, Mindspace, Malad West, Mumbai, Maharashtra 400064, India",computer software
geodesic,19.0759837,72.8776559,"Mumbai, Maharashtra, India",computer software
byzan system pvt ltd,19.126188,72.8550327,"Simran Center, Parsi Panchayat Rd, Jijamata Colony, Jogeshwari East, Mumbai, Maharashtra 400053, India",computer software
nexsus techno solutions,19.1098656,72.8813778,"704, Antariksh (Thakur House), Makwana Road, Andheri East, Gamdevi, Marol, Andheri East, Mumbai, Maharashtra 400059, India",computer software
qlc,19.1183723,72.8563906,"208, Mumbai., Shreepal Complex, Suren Rd, Gundavali, Andheri East, Mumbai, Maharashtra 400093, India",computer software
pegasus infocorp,19.1450865,72.85331,"Wing F, 401/ 402, Lotus Corporate Park, Off, Western Express Hwy, Geetanjali Railway Colony, Laxmi Nagar, Goregaon, Mumbai, Maharashtra 400063, India",computer software
indus os,19.110539,72.886885,"2nd Floor, Krislon House, B Wing, Krishnalal Road, Saki Naka, Krishanlal Marwah Marg, Saki Vihar, Ganesh Nagar, Marol, Andheri East, Mumbai, Maharashtra 400072, India",computer software
germin8,19.1141675,72.865302,"DevX, 215 Atrium, B -Wing, 10th Floor, Andheri - Kurla Rd, near Courtyard by Marriott, Hanuman Nagar, Andheri East, Mumbai, Maharashtra 400059, India",computer software
nividous software solutions,19.0720012,72.8395156,"201, Embassy Chambers, 3rd Rd, Khar, Ram Krishna Nagar, Khar West, Mumbai, Maharashtra 400052, India",computer software
base information management pvt ltd,19.0759837,72.8776559,"Mumbai, Maharashtra, India",computer software
webengage,19.1448793,72.8529221,"Lotus Co Park, Jay Coach Flyover, Geetanjali Railway Colony, Laxmi Nagar, Goregaon, Mumbai, Maharashtra 400063, India",computer software
hazel infotech ltd,18.9262919,72.8218679,"Cluster_mumbai_16, 701/712- A, Embassy Centre, Nariman Point, Marine Lines, Nariman Point, Mumbai, Maharashtra 400021, India",computer software
unikaihatsu software pvt. ltd.,19.162113,72.850475,"33-34 Udyog Bhavan, Sonawala Rd, Jay Prakash Nagar, Goregaon, Mumbai, Maharashtra 400063, India",computer software
lds infotech private limited,19.1129887,72.8688805,"707, Windfall, Sahar Plaza Complex, Andheri Kurla Road, J.B.Nagar, Andheri East, Bhim Nagar, Andheri East, Mumbai, Maharashtra 400059, India",computer software
amrut software pvt ltd,18.931834,72.8274947,"300, Jamshedji Tata Road, Churchgate, Mumbai, Maharashtra 400020, India",computer software
auditime information systems (i) ltd,19.0935349,72.9135536,"A-504, Kailash Esplanade, L B S Marg, Ghatkopar West, Nityanand Nagar, Ghatkopar West, Mumbai, Maharashtra 400086, India",computer software
atidan technologies pvt. ltd.,19.1162488,72.8564058,"Unit 909, 9th Floor, Metro Stn, The Summit Business Bay (Omkar), Off, Andheri - Kurla Rd, near Western Express Highway, Gundavali, Andheri East, Mumbai, Maharashtra 400093, India",computer software
version systems private limited,19.0759837,72.8776559,"Mumbai, Maharashtra, India",computer software
u-to solutions (i) pvt. ltd.,18.9970978,72.8261481,"216, Kewal Industrial Estate, 2nd Floor, Senapati Bapat Marg, West, Lower Parel, Mumbai, Maharashtra 400013, India",computer software
hp finsoft solutions private limited,19.0759837,72.8776559,"Mumbai, Maharashtra, India",computer software
sureprep (india) pvt.ltd,19.111428,72.8813166,"Dhantak Plaza, Makwana Rd, Gamdevi, Marol, Andheri East, Mumbai, Maharashtra 400059, India",computer software
globsyn infotech,19.0759837,72.8776559,"Mumbai, Maharashtra, India",computer software
plexitech technologies pvt. ltd.,18.9356928,72.838573,"Orient House, Adi Murzban Path, Ballard Estate, Fort, Mumbai, Maharashtra 400001, India",computer software
zinghr,19.179699,72.844058,"1201-1202, Quantum Towers, Rambaug Lane, Malad West, Malad, Nadiyawala Colony 2, Malad West, Mumbai, Maharashtra 400064, India",computer software
rhombus technologies,19.0759837,72.8776559,"Mumbai, Maharashtra, India",computer software
aakit technologies pvt. ltd.,19.1124244,72.8829779,"312, Shivai Plaza Premises Co-Op. Society Ltd, 79 A, Marol Cooperative Industrial Estate Rd, Gamdevi, Marol, Andheri (E, Mumbai, Maharashtra 400059, India",computer software
tss consultancy pvt ltd,19.0035124,72.8276852,"602/603, Trade link, E wing, A block, Kamala Mills Compound, Lower Parel, Mumbai, Maharashtra 400013, India",computer software
verixo technologies private limited,19.111833,72.860601,"241/242, 251/252, Building No. 2, Solitaire Corporate Park, Andheri Kurla Road, Andheri East,, Andheri East, Mumbai, Maharashtra 400093, India",computer software
cms info systems private limited,19.0759837,72.8776559,"Mumbai, Maharashtra, India",computer software
indiafin technologies ltd.,19.0759837,72.8776559,"Mumbai, Maharashtra, India",computer software
reliable software systems pvt. ltd.,19.1414585,72.8337283,"404, Morya Classic, Off New Link Road, Oshiwara, Opp. Infinity Mall, Next to Morya Landmark II, Veera Desai Industrial Estate, Jogeshwari West, Mumbai, Maharashtra 400053, India",computer software
mukesh patel school of technology management and engineering,19.109875,72.8380585,"Mukesh Patel School of Technology Management and Engineering Rd, ONGC Colony, Tata Colony, Vile Parle West, Mumbai, Maharashtra 400047, India",computer software
quest2travel.com,19.051978,72.829524,"6th Floor, A Wing, Mumbai Educational Trust (MET, General Arun Kumar Vaidya Marg, opposite Lilavati Hospital, Reclamation, Bandra West, Mumbai, Maharashtra 400050, India",computer software
red panda innovation labs,19.0759837,72.8776559,"Mumbai, Maharashtra, India",computer software
dronahq,19.1409891,72.8328199,"611 shalimar MOriya park, New Link Rd, Veera Desai Industrial Estate, Andheri West, Mumbai, Maharashtra 400053, India",computer software
herald logic,19.1007959,72.9192538,"First Floor, 91 Springboard, Godrej & Boyce, Gate No 2, Plant, No. 6, Lal Bahadur Shastri Rd, opposite Vikhroli, Godrej & Boyce Industry Estate, Vikhroli West, Mumbai, Maharashtra 400079, India",computer software
peocit technologies,19.1162488,72.8564058,"710, The Summit Business Bay (Omkar), Gundavali, Andheri East, Mumbai, Maharashtra 400069, India",computer software
squad infotech pvt. ltd.,19.0123,72.8449,"7A, No. 27, SS Wagh Marg, Old bdd chawl, Dadar East, Dadar, Mumbai, Maharashtra 400014, India",computer software
techatalyst,19.125706,72.874546,"Unit # 106, 1st Floor,, Multistoried Bldg, Seepz-sez, Andheri (East), Seepz, Andheri East, Mumbai, Maharashtra 400096, India",computer software
machinepulse,19.113647,72.880509,"3rd floor, AFL House, Lok Bharati Complex, Marol Maroshi Road, Andheri East, Marol, Andheri East, Mumbai, Maharashtra 400059, India",computer software
holcim services south asia ltd,19.1067373,72.8825166,"2 Andheri - Kurla Road Chakala, Mittal Industrial Estate, Marol, Andheri East, Mumbai, Maharashtra 400059, India",computer software
lunetta software pvt. ltd.,19.1365111,72.8323971,"306, 3rd Floor, Kuber Complex, Link Rd, Veer Desai Industrial Estate, Andheri West, Veera Desai Industrial Estate, Andheri West, Mumbai, Maharashtra 400102, India",computer software
yrals,19.1755772,72.8387661,"702, Royal Palm, Ahimsa Marg, Malad, Sunder Nagar, Malad West, Mumbai, Maharashtra 400064, India",computer software
hayagreeva consulting private limited,19.0748726,72.8721036,"86, Santacruz – Chembur Link Rd, Kapadia Nagar, Kurla, Mumbai, Maharashtra 400089, India",computer software
neorithm technologies,19.0759837,72.8776559,"Mumbai, Maharashtra, India",computer software
general data p. limited,18.9241698,72.8226072,"901, Maker Chambers V, Nariman Point, Mumbai, Maharashtra 400021, India",computer software
prisma global limited,19.1122869,72.868499,"718 - 721, Midas, Sahar Plaza, Andheri Kurla Road, Andheri(E), Bhim Nagar, Andheri East, Mumbai, Maharashtra 400059, India",computer software
alchemy solutions pvt. ltd.,19.1991457,72.8573159,"1003, Ruby Crescent Business Boulevard, 10th Floor, Ashok Nagar, Kandivali(E), Kandivali, Ashok Nagar, Kandivali East, Mumbai, Maharashtra 400101, India",computer software
mosambee - synergistic financial networks,19.0759837,72.8776559,"Mumbai, Maharashtra, India",computer software
volgainfotech pvt. ltd,19.1148653,72.8345158,"70, Juhu Supreme Shopping Centre Gulmohar, Cross Rd Number 9, Model Town Society, Gulmohar Road, JVPD Scheme, Vile Parle West, Mumbai, Maharashtra 400049, India",computer software
sunoray solutions pvt. ltd.,19.0593239,72.8389769,"3R5Q+PHH, Waman Pundlik Warde Marg, Patkar Blocks, Bandra West, Mumbai, Maharashtra 400050, India",computer software
pace infotech india pvt ltd,19.1180131,72.9272568,"S G Barve Marg, Gandhi Nagar, Vikhroli West, Mumbai, Maharashtra 400083, India",computer software
pricebaba.com,19.1240337,72.8643276,"Mahakali Caves Rd, Gokul Nandanvan Co-operative Society, Subhash Nagar, Andheri East, Mumbai, Maharashtra 400047, India",computer software
e10 infotech pvt ltd,19.2089808,72.877766,"B-110 Bhoomi Hills, Thakur Village, Kandivali East, Kandivali, Phase 1, Thakur Village, Kandivali East, Mumbai, Maharashtra 400101, India",computer software
technoinfotech,18.9303165,72.8351015,"2nd Floor, Manu Mansion, 16, Shahid Bhagat Singh Rd, Kala Ghoda, Fort, Mumbai, Maharashtra 400001, India",computer software
pc technowledge center p. ltd.,19.0355561,72.839967,"No.1-3/5, Kshatriya Nivas, Sitladevi Temple Road, New Mangal Wadi, Mahim West, Mahim, Mumbai, Maharashtra 400016, India",computer software
softaculous ltd.,19.0131525,72.8367625,"Palai Commercial, Office no 204, 2nd Floor, Senapati Bapat Marg, Dadar West, Mumbai, Maharashtra 400028, India",computer software
"mind technologies private limited, mumbai, india",19.0854998,72.8364605,"8, New Hari Niwas, Dattatray Rd, Santacruz, Mumbai, Hasmukh Nagar, W, Mumbai, Maharashtra 400054, India",computer software
prodio designworks,19.0206605,72.8679606,"Company Ltd, A-349, Antop Hill Warehousing Complex, Antop Hill, Mumbai, Maharashtra 400037, India",computer software
bridgelabz,19.0507013,72.9158784,"BridgeLabz Solutions Private Limited, 1st Floor, Malhotra Chambers, Deonar, Govandi East, Mumbai, Maharashtra 400088, India",computer software
pxl soft,19.154571,72.886624,"5V3P+RJH, Aarey Rd, Aarey Milk Colony, Royal Palms, Aarey Colony, Goregaon, Mumbai, Maharashtra 400065, India",computer software
nevpro business solutions,19.0519283,72.9144866,"Arjun centre, E, 213 - B, Govandi Station Rd, Deonar, Govandi East, Mumbai, Maharashtra 400088, India",computer software
softlabs group,19.0028754,72.8287473,"Office 6A, Trade World, D Wing, Kamala City, Senapati Bapat Marg, next to World One, Towers, Lower Parel West, Lower Parel, Mumbai, Maharashtra 400013, India",computer software
bprise private limited,19.106336,72.863446,"129, Sahar Cargo Estate, V. M. Shah Marg, Landmark: In Monopoly Express Cargo Building, J. B. Nagar, Andheri (East), next to Café Coffee Day, Taruvel CHS, Wing-C, Tarun Bharat, Andheri East, Mumbai, Maharashtra 400099, India",computer software
centerac technologies limited,19.0759837,72.8776559,"Mumbai, Maharashtra, India",computer software
ripplehire,19.093504,72.913766,"Kailash Esplanade, D-504, Lal Bahadur Shastri Rd, Nityanand Nagar, Ghatkopar West, Mumbai, Maharashtra 400086, India",computer software
indiez,19.0759837,72.8776559,"Mumbai, Maharashtra, India",computer software
fafadia tech,19.1595818,72.8512018,"703, De Elmas, Sonawala Cross Lane Number 2, Sonawala Industry Estate, Goregaon, Mumbai, Maharashtra 400063, India",computer software
suchan software private limited,19.2189496,72.8516899,"306, Aura-Biplex S.V. Road, above Kalyan Jewellers, Shastri Nagar, Mulji Nagar, Borivali West, Mumbai, Maharashtra 400092, India",computer software
ncdex spot exchange limited,19.0759837,72.8776559,"Mumbai, Maharashtra, India",computer software
intcom systems pvt ltd,19.0930099,72.9155593,"Office No 20, Rajasthan technical Centre, Grd Floor Patanwala Estate, Near Shreyas Theatre, intcom systems, Nityanand Nagar, Ghatkopar West, Mumbai, Maharashtra 400086, India",computer software
faclon labs,19.1090745,72.8802496,"12, Jafferbhoy Industrial Estate, Makwana Rd, Gamdevi, Marol Naka, Andheri East, Mumbai, Maharashtra 400059, India",computer software
cenveo publisher services india limited,19.1108825,72.8861549,"5th Floor, 4V6P+8CM Marwah Centre, Krishanlal Marwah Marg, Ganesh Nagar, Marol, Andheri East, Mumbai, Maharashtra 400072, India",computer software
blankchq information technologies pvt ltd,19.0759837,72.877656,"Vakratunda Corporate Park, 801 Eighth Floor, Vishweshwar Nagar,Near Udipi Hotel,, Lower Parel, Friends Colony, Hallow Pul, Kurla, Mumbai, Maharashtra 400063, India",computer software
aditya imaging information technologies,19.1278445,72.8677694,"17 B, Mahal Industrial Estate, Mahakali Caves Rd, Andheri East, Sher E Punjab Colony, Andheri East, Mumbai, Maharashtra 400093, India",computer software
algorithms software pvt ltd,18.9360163,72.8384374,"2Nd Floor, Ballard House, Adi Marzban Path, Ballard Estate, Mumbai - 400038, Ballard Estate, Fort, Mumbai, Maharashtra 400001, India",computer software
amicon technologies pvt. ltd.,19.0759837,72.8776559,"Mumbai, Maharashtra, India",computer software
niche softek pvt. ltd,19.0759837,72.8776559,"Mumbai, Maharashtra, India",computer software
rincon india solutions pvt. ltd.,19.041552,72.8434681,"G - 10, Mahim Industrial Estate, Off, Mori Rd, Mahim West, Mahim, Mumbai, Maharashtra 400016, India",computer software
billeasy,19.1240728,72.8705492,"C211, Floral Deck Plaza, Sunder Nagar, Andheri East, Mumbai, Maharashtra 400093, India",computer software
intellect consulting group,19.0759837,72.8776559,"Mumbai, Maharashtra, India",computer software
astrika infotech pvt ltd,19.0519257,72.8758657,"Room 151, Ground Floor, C Wing, Hazaara Building,, Bhaktidham Mandir Rd, Samarth Nagar, Everard Nagar, Sion, Mumbai, Maharashtra 400022, India",computer software
blue zone systems private limited,19.1604179,72.8511393,"318, Corporate Avenue, Sonawala Industry Estate, Goregaon, Mumbai, Maharashtra 400063, India",computer software
eathena solutions pvt. ltd.,19.1447511,72.8555262,"144, New Sadguru Industrial Estate, Off Western Express Highway, Goregaon East,, near Jaycoach, Geetanjali Railway Colony, Ram Nagar, Goregaon, Mumbai, Maharashtra 400063, India",computer software
taskbob,19.119941,72.9133971,"4W97+X9C, Technology St, Hiranandani Gardens, Sainath Nagar, Powai, Mumbai, Maharashtra 400076, India",computer software
sharptech creative services,19.0759837,72.8776559,"Mumbai, Maharashtra, India",computer software
itaz technologies,19.0759837,72.8776559,"Mumbai, Maharashtra, India",computer software
customer360,19.093025,72.914086,"Phoenix Market City Mall, Lal Bahadur Shastri Rd, Ashok Nagar, Kurla, Mumbai, Maharashtra 400072, India",computer software
internet design zone,19.0759837,72.8776559,"Mumbai, Maharashtra, India",computer software
kinai infotech,19.1162407,72.868024,"2nd Floor ,Cirrius Centre A-19, MIDC, Andheri - Kurla Road, Cross Rd B, Mulgaon, Andheri East, Mumbai, Maharashtra 400093, India",computer software
commtex solutions pvt ltd,19.1228593,72.8448381,"Commtex Solutions Pvt. Ltd. Flat 14 63, Jai Indraini Apt. Cheda Nagar, Dawood Baug, Fish Market Area, Navneeth Colony, Chembur, Mumbai, Maharashtra 400089, India",computer software
lateral praxis,19.0759837,72.8776559,"Mumbai, Maharashtra, India",computer software
iweb technology solutions pvt.ltd.,19.1144722,72.8607597,"Rustomjee Central Park Building , 501/2/3 Executive Spaces, Andheri - Kurla Rd, opp. Kanakia Wall Street, Andheri East, Mumbai, Maharashtra 400059, India",computer software
moryaas digital pvt ltd.,19.1114686,72.8812767,"601, Dhantak Plaza, Makwana Rd, Gamdevi, Marol, Andheri East, Mumbai, Maharashtra 400059, India",computer software
isri technologies,19.093482,72.913619,"C-319,3rd Floor,, Kailash Esplanade, Opp. Shreyas Cinema,, LBS Marg , Ghatkopar-West, Nityanand Nagar, Ghatkopar West, Mumbai, Maharashtra 400086, India",computer software
hands in technology,19.202964,72.834186,"412, Ghanshyam Enclave Near Lalji Pada Police Station, New Link Rd, Kandivali, Shankar Pada, Kandivali West, Mumbai, Maharashtra 400067, India",computer software
spatial ideas,19.1084233,72.8798497,"B-707, Everest Chambers, Andheri - Kurla Rd, Gamdevi, Marol, Andheri East, Mumbai, Maharashtra 400059, India",computer software
maximaa infoways,19.0759837,72.8776559,"Mumbai, Maharashtra, India",computer software
imperial it solutions,19.2185183,72.8260111,"Plot no.556, D15, Satyavijay co.op.HSG society sector no.5, charkop Depot, opp. sanakar school, Kandivali, Charkop Gaon, Kandivali West, Mumbai, Maharashtra 400067, India",computer software
solution planets,19.1692987,72.9505326,"6, Naresh Smruti, S. L. Road,, Vithal Nagar, Behind S. M. P. R. School (Gujarati Medium), Mulund West, Mumbai, Maharashtra 400080, India",computer software
street light software pvt ltd,19.1183767,72.9265781,"FC-3/4 Karma Stambh, Lal Bahadur Shastri Rd, Surya Nagar, Chandan Nagar, Vikhroli West, Mumbai, Maharashtra 400083, India",computer software
peachmode.com (code raft solutions),19.0759837,72.8776559,"Mumbai, Maharashtra, India",computer software
cyberindigo net pvt ltd,19.0803211,72.8951613,"No: 220 - 223, Reena Complex, Ramdev Nagar Road,, Vidyavihar( west), Khalai Village, Vidyavihar West, Vidyavihar, Mumbai, Maharashtra 400086, India",computer software
depasser infotech,19.2011688,72.8481352,"101, Gaurav Palace, Shantilal Modi Rd, behind Bata Showroom, Kandivali, Bhagat Colony, Kandivali West, Mumbai, Maharashtra 400067, India",computer software
codebox,19.0759837,72.8776559,"Mumbai, Maharashtra, India",computer software
edifybiz,19.207237,72.834822,"A/101, bhoomi utsav, MG road,, Kandivali, Maharashtra Nagar, Kandivali West, Mumbai, Maharashtra 400067, India",computer software
fluous solutions pvt. ltd,19.0759837,72.8776559,"Mumbai, Maharashtra, India",computer software
gst edge,19.1140992,72.8431367,"Asha vadi, 53 Yashwant Nagar, Opposite Shopper's Stop, Swami Vivekananda Rd, Bharucha Baug, Parsi Colony, Andheri West, Mumbai, Maharashtra 400058, India",computer software
image computer systems pvt. ltd.,19.0759837,72.8776559,"Mumbai, Maharashtra, India",computer software
oneleap solutions,19.148569,72.8324386,"Reliable Business Center, Unit-611, next to Om Heera Panna Mall, behind Oshiwara Police Station, Mhada Colony, Jogeshwari West, Mumbai, Maharashtra 400102, India",computer software
ambuja cements ltd,19.0759837,72.8776559,"Mumbai, Maharashtra, India",construction
kec international ltd.,19.0759837,72.8776559,"Mumbai, Maharashtra, India",construction
afcons infrastructure limited,19.0759837,72.8776559,"Mumbai, Maharashtra, India",construction
gammon india ltd,19.1258388,72.8542981,"Karmayog Building Annex, Parsi Panchayat Road, 4VG3+8PM, Jijamata Colony, Andheri East, Jijamata Colony, Andheri East, Mumbai, Maharashtra 400053, India",construction
hcc,19.0759837,72.8776559,"Mumbai, Maharashtra, India",construction
hindustan construction company,19.0759837,72.8776559,"Mumbai, Maharashtra, India",construction
pratibha industries ltd.,19.0741059,72.8804183,"Unit No. 1/B-56 & 1/B-57, 1st Floor, Phoenix Paragon Plaza, Phoenix Market, Hallow Pul, Kurla, Mumbai, Maharashtra 400070, India",construction
abg cement ltd,19.0759837,72.8776559,"Mumbai, Maharashtra, India",construction
capacit'e infraprojects limited,19.0505823,72.9157626,"Anchorage Building, 4th Floor, Near Amarnath Patil Garden, Deonar, Govandi East, Mumbai, Maharashtra 400088, India",construction
jsw severfield structures ltd,19.0852041,72.8911171,"JSW Severfield Structures Ltd. Art Guild House, Office No. 05 – 08, B-Wing, Lower Ground Floor, Phoenix Market City Tel: +91 22 6731 7000, Lal Bahadur Shastri Rd, Kurla West, Kurla, Mumbai, Maharashtra 400070, India",construction
overseas infrastructure alliance (india) pvt ltd,19.0759837,72.8776559,"Mumbai, Maharashtra, India",construction
hindustan colas limited,18.9948988,72.8310727,"HINCOL House B-601, 6th Floor Marathon Futurex, NM Joshi Marg, BDD Chawl, Lower Parel, Mumbai, Maharashtra 400013, India",construction
spartan engineering indusrtries pvt ltd.,19.1023888,72.8837106,"111, New Tejpal Industrial Estate, Andheri - Kurla Rd, Saki Naka, Mumbai, Maharashtra 400072, India",construction
octamec engineering limited,19.1060613,72.8519308,"Octamec House, 18, Subhash Rd, Navpada, Vile Parle East, Vile Parle, Mumbai, Maharashtra 400057, India",construction
vijay group housing,18.9862007,72.8448385,"B - 16, Minerva Industrial Estate, 3rd flr Sewree(E, Sewri, Mumbai, Maharashtra 400015, India",construction
dosti realty,19.0316823,72.8815903,"The Exclusif Sales Lounge, Dosti Eastern Bay, Adjacent to Dosti Acres, Near MCGM Bldg, Uphill, Anik Wadala Link Rd, Bhakti Park, Wadala, Mumbai, Maharashtra 400037, India",construction
db realty ltd,19.1746698,72.8634156,"General A.K. Vaidya Marg, 5VF7+V97, Yashodham, Goregaon, Maharashtra 400063, India",construction
skyway rmc plants private limited,19.1135919,72.8472573,"904-B, Kaledonia, Sahar Rd, Navpada, Vile Parle East, Andheri (E, Mumbai, Maharashtra 400059, India",construction
pandhe infracons pvt. ltd.,19.0759837,72.8776559,"Mumbai, Maharashtra, India",construction
panora infrastructure,19.004756,72.8222872,"4 sumer kendra, Pandurang Budhkar Marg, Worli, BDD Chawls Worli, Worli, Mumbai, Maharashtra 400018, India",construction
newkem engineers pvt ltd,19.017723,72.847155,"3rd Floor, Harganga Mahal, Khodadad Cir, Dadar TT, Dadar East, Dadar, Mumbai, Maharashtra 400014, India",construction
ashtech india pvt ltd,18.9987817,72.8270452,"9th Floor, Ashford Centre, Lower Parel, Mumbai, Maharashtra 400013, India",construction
pipal tree ventures private ltd.,19.1604949,72.8508677,"701/702/703, Seventh Floor, Corporate Annexe, Next to Udyog Bhawan,, Sonawala Road, Goregaon East, Sonawala Industry Estate, Goregaon, Mumbai, Maharashtra 400063, India",construction
buniyad,19.1742532,72.8658342,"Buniyad Society, SHAGUN ARCADE BUNIYARD CHS, Yashodham Vidyalay Marg, Yashodham, Goregaon, Mumbai, Maharashtra 400063, India",construction
k. raheja constructions,19.1869767,72.8312472,"INTERFACE HEIGHTS 'D', 1ST FLOOR Ground Floor, F wing, INTERFACE HEIGHTS, off New Link Road, behind Infinity Mall, Malad, Mindspace, Malad West, Mumbai, Maharashtra 400064, India",construction
h'reck engineers pvt ltd,18.9742297,72.8257354,"145, Madhav Rao Gangan St, Agripada, Mumbai, Maharashtra 400011, India",construction
ensemble infrastructure india ltd,19.0759837,72.8776559,"Mumbai, Maharashtra, India",construction
avighna india ltd.,18.9994375,72.8396875,"one avighna e, Parel East, Parel, e, Maharashtra 400012, India",construction
kpm engineering,19.0759837,72.8776559,"Mumbai, Maharashtra, India",construction
algorithms software ltd,18.9360163,72.8384374,"2Nd Floor, Ballard House, Adi Marzban Path, Ballard Estate, Mumbai - 400038, Ballard Estate, Fort, Mumbai, Maharashtra 400001, India",construction
mpil steel structures ltd.,19.111773,72.870211,"Mpil Headquarters, 6th Floor, Trade Star – B Wing, Andheri-Kurla Rd, Bhim Nagar, Andheri East, Mumbai, Maharashtra 400059, India",construction
ashish interbuild pvt. ltd,19.1097449,72.8805107,"202, 2nd Floor, ARK Industrial Estate, Makwana Rd, Sankasth Pada Welfare Society, Gamdevi, Marol, Andheri East, Mumbai, Maharashtra 400059, India",construction
sabari enterprises,19.1624981,72.9341725,"Room No. 10 Khan Chawl, Lake Rd, New Prakash Nagar, Sonapur, Bhandup West, Mumbai, Maharashtra 400078, India",construction
